canonical_name,display_name,slug,longitude,latitude,site_type,country_code,short_description,source
Grutas de Loltún,Grutas de Loltún,grutas-de-loltún,-89.4557932,20.2535588,archaeological_site,,Archaeological site recorded in OpenStreetMap.,OpenStreetMap
Uaxactun,Uaxactun,uaxactun,-89.6294686,17.3912708,archaeological_site,,Archaeological site recorded in OpenStreetMap.,OpenStreetMap
Chacmultun,Chacmultun,chacmultun,-89.3450687,20.1726837,archaeological_site,,Archaeological site recorded in OpenStreetMap.,OpenStreetMap
Xet Pool,Xet Pool,xet-pool,-89.3390708,20.1695315,archaeological_site,,Archaeological site recorded in OpenStreetMap.,OpenStreetMap
Cabalpak,Cabalpak,cabalpak,-89.3448971,20.1704681,archaeological_site,,Archaeological site recorded in OpenStreetMap.,OpenStreetMap
Izapa (grupo F),Izapa (grupo F),izapa-grupo-f,-92.1799581,14.9233002,archaeological_site,,Archaeological site recorded in OpenStreetMap.,OpenStreetMap
Izapa (grupo A),Izapa (grupo A),izapa-grupo-a,-92.1843261,14.9135073,archaeological_site,,Archaeological site recorded in OpenStreetMap.,OpenStreetMap
Xoclan,Xoclan,xoclan,-89.6668705,20.9752601,archaeological_site,,Archaeological site recorded in OpenStreetMap.,OpenStreetMap
Altar de los Sacrificios,Altar de los Sacrificios,altar-de-los-sacrificios,-90.5295385,16.4794188,archaeological_site,,Archaeological site recorded in OpenStreetMap.,OpenStreetMap
Tumba del Caracol,Tumba del Caracol,tumba-del-caracol,-86.9792342,20.2801287,archaeological_site,,Archaeological site recorded in OpenStreetMap.,OpenStreetMap
Nocuchich,Nocuchich,nocuchich,-89.7670526,19.7242655,archaeological_site,,Archaeological site recorded in OpenStreetMap.,OpenStreetMap
Uxul,Uxul,uxul,-89.9838472,17.8579619,archaeological_site,,Archaeological site recorded in OpenStreetMap.,OpenStreetMap
La Milpa,La Milpa,la-milpa,-89.0510906,17.83543,archaeological_site,,Archaeological site recorded in OpenStreetMap.,OpenStreetMap
Estela 26,Estela 26,estela-26,-87.7261547,20.4902491,archaeological_site,,Archaeological site recorded in OpenStreetMap.,OpenStreetMap
Estela 10,Estela 10,estela-10,-87.7322968,20.4903997,archaeological_site,,Archaeological site recorded in OpenStreetMap.,OpenStreetMap
Estela 9,Estela 9,estela-9,-87.7323215,20.4902825,archaeological_site,,Archaeological site recorded in OpenStreetMap.,OpenStreetMap
Estela 1,Estela 1,estela-1,-87.7244642,20.4859401,archaeological_site,,Archaeological site recorded in OpenStreetMap.,OpenStreetMap
Estela 11,Estela 11,estela-11,-87.731975,20.4899473,archaeological_site,,Archaeological site recorded in OpenStreetMap.,OpenStreetMap
Stela,Stela,stela,-87.73246,20.4906196,archaeological_site,,Archaeological site recorded in OpenStreetMap.,OpenStreetMap
Nadzcaan,Nadzcaan,nadzcaan,-89.850407,18.6065332,archaeological_site,,Archaeological site recorded in OpenStreetMap.,OpenStreetMap
Macoba,Macoba,macoba,-89.3559249,19.5610796,archaeological_site,,Archaeological site recorded in OpenStreetMap.,OpenStreetMap
Estuctura maya en la exhacienda Chichí Suárez,Estuctura maya en la exhacienda Chichí Suárez,estuctura-maya-en-la-exhacienda-chichí-suárez,-89.5311571,20.9895649,archaeological_site,,Archaeological site recorded in OpenStreetMap.,OpenStreetMap
Estuctura Maya - San Pedro Cholul,Estuctura Maya - San Pedro Cholul,estuctura-maya-san-pedro-cholul,-89.5582348,21.0287033,archaeological_site,,Archaeological site recorded in OpenStreetMap.,OpenStreetMap
Estuctura maya en la exhacienda San Pedro Cholul,Estuctura maya en la exhacienda San Pedro Cholul,estuctura-maya-en-la-exhacienda-san-pedro-cholul,-89.5566923,21.0295375,archaeological_site,,Archaeological site recorded in OpenStreetMap.,OpenStreetMap
Conjunto F,Conjunto F,conjunto-f,-89.6193574,17.2225128,archaeological_site,,Archaeological site recorded in OpenStreetMap.,OpenStreetMap
Conjunto H,Conjunto H,conjunto-h,-89.6217979,17.2292139,archaeological_site,,Archaeological site recorded in OpenStreetMap.,OpenStreetMap
Conjunto M,Conjunto M,conjunto-m,-89.6238912,17.2290978,archaeological_site,,Archaeological site recorded in OpenStreetMap.,OpenStreetMap
Conjunto O,Conjunto O,conjunto-o,-89.6233013,17.2251388,archaeological_site,,Archaeological site recorded in OpenStreetMap.,OpenStreetMap
Conjunto P,Conjunto P,conjunto-p,-89.6219842,17.2293163,archaeological_site,,Archaeological site recorded in OpenStreetMap.,OpenStreetMap
Conjunto Q,Conjunto Q,conjunto-q,-89.6192168,17.2252594,archaeological_site,,Archaeological site recorded in OpenStreetMap.,OpenStreetMap
Conjunto R,Conjunto R,conjunto-r,-89.6207314,17.2256376,archaeological_site,,Archaeological site recorded in OpenStreetMap.,OpenStreetMap
Aguateca,Aguateca,aguateca,-90.2035837,16.3970361,archaeological_site,,Archaeological site recorded in OpenStreetMap.,OpenStreetMap
Dos Pilas,Dos Pilas,dos-pilas,-90.2724041,16.4512633,archaeological_site,,Archaeological site recorded in OpenStreetMap.,OpenStreetMap
El Tintal,El Tintal,el-tintal,-90.0008918,17.5917112,archaeological_site,,Archaeological site recorded in OpenStreetMap.,OpenStreetMap
Nakbé,Nakbé,nakbé,-89.831101,17.6820107,archaeological_site,,Archaeological site recorded in OpenStreetMap.,OpenStreetMap
Chunkunab,Chunkunab,chunkunab,-89.2160949,20.1518423,archaeological_site,,Archaeological site recorded in OpenStreetMap.,OpenStreetMap
El Palmar,El Palmar,el-palmar,-89.3428241,18.0762558,archaeological_site,,Archaeological site recorded in OpenStreetMap.,OpenStreetMap
El Resbalón,El Resbalón,el-resbalón,-88.7866521,18.7711743,archaeological_site,,Archaeological site recorded in OpenStreetMap.,OpenStreetMap
Kankí,Kankí,kankí,-90.1133818,19.9950617,archaeological_site,,Archaeological site recorded in OpenStreetMap.,OpenStreetMap
Nohpat,Nohpat,nohpat,-89.701615,20.3169633,archaeological_site,,Archaeological site recorded in OpenStreetMap.,OpenStreetMap
Mulchí,Mulchí,mulchí,-87.1238983,20.5792628,archaeological_site,,Archaeological site recorded in OpenStreetMap.,OpenStreetMap
Arroyo de Piedra,Arroyo de Piedra,arroyo-de-piedra,-90.2585949,16.4608117,archaeological_site,,Archaeological site recorded in OpenStreetMap.,OpenStreetMap
Tamarindito,Tamarindito,tamarindito,-90.2320772,16.4593451,archaeological_site,,Archaeological site recorded in OpenStreetMap.,OpenStreetMap
Balberta,Balberta,balberta,-90.9380534,14.1583471,archaeological_site,,Archaeological site recorded in OpenStreetMap.,OpenStreetMap
Bejucal,Bejucal,bejucal,-89.7699608,17.292036,archaeological_site,,Archaeological site recorded in OpenStreetMap.,OpenStreetMap
Chocolá,Chocolá,chocolá,-91.4271551,14.6173924,archaeological_site,,Archaeological site recorded in OpenStreetMap.,OpenStreetMap
El Baúl,El Baúl,el-baúl,-91.0188593,14.3806449,archaeological_site,,Archaeological site recorded in OpenStreetMap.,OpenStreetMap
Chuntuntuqui,Chuntuntuqui,chuntuntuqui,-90.0993711,17.5366177,archaeological_site,,Archaeological site recorded in OpenStreetMap.,OpenStreetMap
La Florida,La Florida,la-florida,-89.9990919,17.5201773,archaeological_site,,Archaeological site recorded in OpenStreetMap.,OpenStreetMap
La Muralla,La Muralla,la-muralla,-89.7790863,17.7284179,archaeological_site,,Archaeological site recorded in OpenStreetMap.,OpenStreetMap
Paixban,Paixban,paixban,-90.1078157,17.7941011,archaeological_site,,Archaeological site recorded in OpenStreetMap.,OpenStreetMap
Porvenir,Porvenir,porvenir,-89.9899437,17.6566884,archaeological_site,,Archaeological site recorded in OpenStreetMap.,OpenStreetMap
Topoxté,Topoxté,topoxté,-89.4301734,17.0606912,archaeological_site,,Archaeological site recorded in OpenStreetMap.,OpenStreetMap
Waka',Waka',waka,-89.9053035,17.6208376,archaeological_site,,Archaeological site recorded in OpenStreetMap.,OpenStreetMap
Xulnal,Xulnal,xulnal,-90.0715744,17.5785509,archaeological_site,,Archaeological site recorded in OpenStreetMap.,OpenStreetMap
Holtún,Holtún,holtún,-89.3872613,16.9700682,archaeological_site,,Archaeological site recorded in OpenStreetMap.,OpenStreetMap
Pirámide de Caucel,Pirámide de Caucel,pirámide-de-caucel,-89.7052467,21.0171418,archaeological_site,,Archaeological site recorded in OpenStreetMap.,OpenStreetMap
Arqueológico de Granjas,Arqueológico de Granjas,arqueológico-de-granjas,-89.5911046,20.9372489,archaeological_site,,Archaeological site recorded in OpenStreetMap.,OpenStreetMap
Sabakalal,Sabakalal,sabakalal,-89.7751277,21.0867686,archaeological_site,,Archaeological site recorded in OpenStreetMap.,OpenStreetMap
Dsibiltún,Dsibiltún,dsibiltún,-89.883994,19.5470468,archaeological_site,,Archaeological site recorded in OpenStreetMap.,OpenStreetMap
Nabitunich,Nabitunich,nabitunich,-89.1346932,17.0989453,archaeological_site,,Archaeological site recorded in OpenStreetMap.,OpenStreetMap
Casco de la hacienda Xtul,Casco de la hacienda Xtul,casco-de-la-hacienda-xtul,-89.8275828,21.2526395,archaeological_site,,Archaeological site recorded in OpenStreetMap.,OpenStreetMap
"Centro Arqueologico Kaminal Juyú "" 1st city of Nephi""","Centro Arqueologico Kaminal Juyú "" 1st city of Nephi""",centro-arqueologico-kaminal-juyú-1st-city-of-nephi,-90.5485357,14.6326366,archaeological_site,,Archaeological site recorded in OpenStreetMap.,OpenStreetMap
Ruinas sin Explorar,Ruinas sin Explorar,ruinas-sin-explorar,-87.980015,15.4978644,archaeological_site,,Archaeological site recorded in OpenStreetMap.,OpenStreetMap
Baking Pot,Baking Pot,baking-pot,-88.9516766,17.2110581,archaeological_site,,Archaeological site recorded in OpenStreetMap.,OpenStreetMap
Mayflower Archaeological Site,Mayflower Archaeological Site,mayflower-archaeological-site,-88.3828964,16.9322164,archaeological_site,,Archaeological site recorded in OpenStreetMap.,OpenStreetMap
Buenavista del Cayo,Buenavista del Cayo,buenavista-del-cayo,-89.1261971,17.1375222,archaeological_site,,Archaeological site recorded in OpenStreetMap.,OpenStreetMap
Plaza Copal,Plaza Copal,plaza-copal,-89.1455397,17.2523088,archaeological_site,,Archaeological site recorded in OpenStreetMap.,OpenStreetMap
Plaza Gumbolimbo,Plaza Gumbolimbo,plaza-gumbolimbo,-89.1454703,17.2550104,archaeological_site,,Archaeological site recorded in OpenStreetMap.,OpenStreetMap
Plaza Duende,Plaza Duende,plaza-duende,-89.1451447,17.2531227,archaeological_site,,Archaeological site recorded in OpenStreetMap.,OpenStreetMap
Plaza Lec,Plaza Lec,plaza-lec,-89.1460203,17.2560329,archaeological_site,,Archaeological site recorded in OpenStreetMap.,OpenStreetMap
Xaxbil,Xaxbil,xaxbil,-89.3627903,18.4890511,archaeological_site,,Archaeological site recorded in OpenStreetMap.,OpenStreetMap
Namac,Namac,namac,-89.36782,18.5487072,archaeological_site,,Archaeological site recorded in OpenStreetMap.,OpenStreetMap
Xuch,Xuch,xuch,-89.4507325,18.4878301,archaeological_site,,Archaeological site recorded in OpenStreetMap.,OpenStreetMap
Caca de Yhanha,Caca de Yhanha,caca-de-yhanha,-89.4990809,18.5305603,archaeological_site,,Archaeological site recorded in OpenStreetMap.,OpenStreetMap
CHanna,CHanna,channa,-89.4927895,18.4619426,archaeological_site,,Archaeological site recorded in OpenStreetMap.,OpenStreetMap
Xuch,Xuch,xuch,-89.4775116,18.4809923,archaeological_site,,Archaeological site recorded in OpenStreetMap.,OpenStreetMap
Centauro del Norte,Centauro del Norte,centauro-del-norte,-89.4660103,18.4331198,archaeological_site,,Archaeological site recorded in OpenStreetMap.,OpenStreetMap
Buenavista,Buenavista,buenavista,-86.9308347,20.3328272,archaeological_site,,Archaeological site recorded in OpenStreetMap.,OpenStreetMap
Ka'na Nah,Ka'na Nah,kana-nah,-86.8516786,20.5021424,archaeological_site,,Archaeological site recorded in OpenStreetMap.,OpenStreetMap
Nohoch Nah,Nohoch Nah,nohoch-nah,-86.8432806,20.502592,archaeological_site,,Archaeological site recorded in OpenStreetMap.,OpenStreetMap
El Cedral,El Cedral,el-cedral,-86.9935709,20.3668268,archaeological_site,,Archaeological site recorded in OpenStreetMap.,OpenStreetMap
Grutas de Balankanche,Grutas de Balankanche,grutas-de-balankanche,-88.5347926,20.6585786,archaeological_site,,Archaeological site recorded in OpenStreetMap.,OpenStreetMap
Centro Cultural CECIJEMA,Centro Cultural CECIJEMA,centro-cultural-cecijema,-88.5838668,20.6943228,archaeological_site,,Archaeological site recorded in OpenStreetMap.,OpenStreetMap
complejo Pava,complejo Pava,complejo-pava,-89.9060531,17.7515179,archaeological_site,,Archaeological site recorded in OpenStreetMap.,OpenStreetMap
Escalera basal,Escalera basal,escalera-basal,-89.9070497,17.7523531,archaeological_site,,Archaeological site recorded in OpenStreetMap.,OpenStreetMap
El Tintal,El Tintal,el-tintal,-89.9991637,17.5760208,archaeological_site,,Archaeological site recorded in OpenStreetMap.,OpenStreetMap
La Florida,La Florida,la-florida,-90.0022874,17.5117573,archaeological_site,,Archaeological site recorded in OpenStreetMap.,OpenStreetMap
Gruta del Espíritu Santo,Gruta del Espíritu Santo,gruta-del-espíritu-santo,-87.9651331,13.8212676,archaeological_site,,Archaeological site recorded in OpenStreetMap.,OpenStreetMap
Plaza Ixim,Plaza Ixim,plaza-ixim,-89.1457072,17.2554717,archaeological_site,,Archaeological site recorded in OpenStreetMap.,OpenStreetMap
Sitio Arqueológico de Finca Rosita,Sitio Arqueológico de Finca Rosita,sitio-arqueológico-de-finca-rosita,-89.5607244,13.9723425,archaeological_site,,Archaeological site recorded in OpenStreetMap.,OpenStreetMap
Los Arcos,Los Arcos,los-arcos,-91.8166968,15.101993,archaeological_site,,Archaeological site recorded in OpenStreetMap.,OpenStreetMap
El Chircal - Escalinata,El Chircal - Escalinata,el-chircal-escalinata,-87.6476311,14.3637241,archaeological_site,,Archaeological site recorded in OpenStreetMap.,OpenStreetMap
El Chircal - Cerro David,El Chircal - Cerro David,el-chircal-cerro-david,-87.6502623,14.3637592,archaeological_site,,Archaeological site recorded in OpenStreetMap.,OpenStreetMap
Sitio Arqueologico Zinacatan Sector 1,Sitio Arqueologico Zinacatan Sector 1,sitio-arqueologico-zinacatan-sector-1,-89.3947242,13.54675,archaeological_site,,Archaeological site recorded in OpenStreetMap.,OpenStreetMap
izapa grupo B,izapa grupo B,izapa-grupo-b,-92.1814091,14.9144409,archaeological_site,,Archaeological site recorded in OpenStreetMap.,OpenStreetMap
Conjunto P,Conjunto P,conjunto-p,-89.6226106,17.2294758,archaeological_site,,Archaeological site recorded in OpenStreetMap.,OpenStreetMap
Sítio arqueológico Avila,Sítio arqueológico Avila,sítio-arqueológico-avila,-89.5820588,17.1977492,archaeological_site,,Archaeological site recorded in OpenStreetMap.,OpenStreetMap
Sítio arqueológico Camul,Sítio arqueológico Camul,sítio-arqueológico-camul,-89.6435028,17.1986562,archaeological_site,,Archaeological site recorded in OpenStreetMap.,OpenStreetMap
Sítio arqueológico Chikin Tikal,Sítio arqueológico Chikin Tikal,sítio-arqueológico-chikin-tikal,-89.644801,17.2125894,archaeological_site,,Archaeological site recorded in OpenStreetMap.,OpenStreetMap
Sítio arqueológico Corazal,Sítio arqueológico Corazal,sítio-arqueológico-corazal,-89.5497006,17.2195991,archaeological_site,,Archaeological site recorded in OpenStreetMap.,OpenStreetMap
Sítio arqueológico El Encanto,Sítio arqueológico El Encanto,sítio-arqueológico-el-encanto,-89.5442879,17.2635012,archaeological_site,,Archaeological site recorded in OpenStreetMap.,OpenStreetMap
Sítio arqueológico Jimbal,Sítio arqueológico Jimbal,sítio-arqueológico-jimbal,-89.612518,17.2835812,archaeological_site,,Archaeological site recorded in OpenStreetMap.,OpenStreetMap
Sítio arqueológico La Flor,Sítio arqueológico La Flor,sítio-arqueológico-la-flor,-89.5317245,17.2887495,archaeological_site,,Archaeological site recorded in OpenStreetMap.,OpenStreetMap
Tazumal,Tazumal,tazumal,-89.6746172,13.9798149,archaeological_site,,Archaeological site recorded in OpenStreetMap.,OpenStreetMap
Tixmul,Tixmul,tixmul,-88.2782913,19.3481436,archaeological_site,,Archaeological site recorded in OpenStreetMap.,OpenStreetMap
Petroglifos y Arte Rupestre Piedras Pintadas,Petroglifos y Arte Rupestre Piedras Pintadas,petroglifos-y-arte-rupestre-piedras-pintadas,-86.6633156,13.608689,archaeological_site,,Archaeological site recorded in OpenStreetMap.,OpenStreetMap
Conjunto L,Conjunto L,conjunto-l,-89.6312219,17.2202415,archaeological_site,,Archaeological site recorded in OpenStreetMap.,OpenStreetMap
Conjunto N,Conjunto N,conjunto-n,-89.6286144,17.2221391,archaeological_site,,Archaeological site recorded in OpenStreetMap.,OpenStreetMap
Sweat House,Sweat House,sweat-house,-89.6216932,17.2218403,archaeological_site,,Archaeological site recorded in OpenStreetMap.,OpenStreetMap
Zona Arqueológica de Yaxchilán,Zona Arqueológica de Yaxchilán,zona-arqueológica-de-yaxchilán,-90.9676383,16.9014894,archaeological_site,,Archaeological site recorded in OpenStreetMap.,OpenStreetMap
Lynam Prison,Lynam Prison,lynam-prison,-88.3512596,16.976759,archaeological_site,,Archaeological site recorded in OpenStreetMap.,OpenStreetMap
Sak Tunich,Sak Tunich,sak-tunich,-89.047929,17.1019751,archaeological_site,,Archaeological site recorded in OpenStreetMap.,OpenStreetMap
Uaxactún Grupo A,Uaxactún Grupo A,uaxactún-grupo-a,-89.6386276,17.3950487,archaeological_site,,Archaeological site recorded in OpenStreetMap.,OpenStreetMap
Uaxactún Grupo B,Uaxactún Grupo B,uaxactún-grupo-b,-89.6391074,17.3975568,archaeological_site,,Archaeological site recorded in OpenStreetMap.,OpenStreetMap
Uaxactún Grupo C,Uaxactún Grupo C,uaxactún-grupo-c,-89.6361798,17.4000679,archaeological_site,,Archaeological site recorded in OpenStreetMap.,OpenStreetMap
Uaxactún Grupo E,Uaxactún Grupo E,uaxactún-grupo-e,-89.6293955,17.3918535,archaeological_site,,Archaeological site recorded in OpenStreetMap.,OpenStreetMap
Uaxactún Grupo F,Uaxactún Grupo F,uaxactún-grupo-f,-89.6320278,17.387792,archaeological_site,,Archaeological site recorded in OpenStreetMap.,OpenStreetMap
Uaxactún Grupo D,Uaxactún Grupo D,uaxactún-grupo-d,-89.6320365,17.3923082,archaeological_site,,Archaeological site recorded in OpenStreetMap.,OpenStreetMap
Plaza 3 Waka Peru,Plaza 3 Waka Peru,plaza-3-waka-peru,-90.3571415,17.2674463,archaeological_site,,Archaeological site recorded in OpenStreetMap.,OpenStreetMap
Las minas de San Albino,Las minas de San Albino,las-minas-de-san-albino,-86.0972126,13.6948092,archaeological_site,,Archaeological site recorded in OpenStreetMap.,OpenStreetMap
Temple of Ixchel,Temple of Ixchel,temple-of-ixchel,-86.710859,21.202012,archaeological_site,,Archaeological site recorded in OpenStreetMap.,OpenStreetMap
Tayazal sitio arqueológico,Tayazal sitio arqueológico,tayazal-sitio-arqueológico,-89.8916622,16.9392088,archaeological_site,,Archaeological site recorded in OpenStreetMap.,OpenStreetMap
Complejo Puma,Complejo Puma,complejo-puma,-89.9069119,17.7542018,archaeological_site,,Archaeological site recorded in OpenStreetMap.,OpenStreetMap
Acrópolis central,Acrópolis central,acrópolis-central,-89.9181122,17.753097,archaeological_site,,Archaeological site recorded in OpenStreetMap.,OpenStreetMap
Sanjol,Sanjol,sanjol,-89.9103338,17.7525031,archaeological_site,,Archaeological site recorded in OpenStreetMap.,OpenStreetMap
Gavillan,Gavillan,gavillan,-89.9090892,17.7538008,archaeological_site,,Archaeological site recorded in OpenStreetMap.,OpenStreetMap
Sitio Arqueológico El Arenal,Sitio Arqueológico El Arenal,sitio-arqueológico-el-arenal,-91.566811,17.643091,archaeological_site,,Archaeological site recorded in OpenStreetMap.,OpenStreetMap
Sitio Arqueológicol Tiradero,Sitio Arqueológicol Tiradero,sitio-arqueológicol-tiradero,-91.1565347,17.7828188,archaeological_site,,Archaeological site recorded in OpenStreetMap.,OpenStreetMap
Sitio Arqueológico de Piedras Negras,Sitio Arqueológico de Piedras Negras,sitio-arqueológico-de-piedras-negras,-91.2618411,17.1683877,archaeological_site,,Archaeological site recorded in OpenStreetMap.,OpenStreetMap
Sitio Arqueológico Zapote Bobal,Sitio Arqueológico Zapote Bobal,sitio-arqueológico-zapote-bobal,-90.3003049,17.3075494,archaeological_site,,Archaeological site recorded in OpenStreetMap.,OpenStreetMap
Sitio Arqueológico El Perú - Waka,Sitio Arqueológico El Perú - Waka,sitio-arqueológico-el-perú-waka,-90.3811404,17.2783463,archaeological_site,,Archaeological site recorded in OpenStreetMap.,OpenStreetMap
Yaxnohcah,Yaxnohcah,yaxnohcah,-89.7414749,17.9302319,archaeological_site,,Archaeological site recorded in OpenStreetMap.,OpenStreetMap
Complejo de Pirámides Gemelas N,Complejo de Pirámides Gemelas N,complejo-de-pirámides-gemelas-n,-89.6287382,17.2224973,archaeological_site,,Archaeological site recorded in OpenStreetMap.,OpenStreetMap
Campo de pelota,Campo de pelota,campo-de-pelota,-88.0485796,14.9449573,archaeological_site,,Archaeological site recorded in OpenStreetMap.,OpenStreetMap
Campo de pelota,Campo de pelota,campo-de-pelota,-88.0488012,14.9488476,archaeological_site,,Archaeological site recorded in OpenStreetMap.,OpenStreetMap
Zona Arqueológica Chakanbakán,Zona Arqueológica Chakanbakán,zona-arqueológica-chakanbakán,-89.0894715,18.4519813,archaeological_site,,Archaeological site recorded in OpenStreetMap.,OpenStreetMap
Cara Blanca Pools,Cara Blanca Pools,cara-blanca-pools,-88.854475,17.4198535,archaeological_site,,Archaeological site recorded in OpenStreetMap.,OpenStreetMap
Water Temple,Water Temple,water-temple,-88.8739348,17.4213501,archaeological_site,,Archaeological site recorded in OpenStreetMap.,OpenStreetMap
Sweat Bath,Sweat Bath,sweat-bath,-88.8772862,17.4211951,archaeological_site,,Archaeological site recorded in OpenStreetMap.,OpenStreetMap
M7,M7,m7,-88.9176908,17.409776,archaeological_site,,Archaeological site recorded in OpenStreetMap.,OpenStreetMap
M11,M11,m11,-88.9202908,17.407618,archaeological_site,,Archaeological site recorded in OpenStreetMap.,OpenStreetMap
M10,M10,m10,-88.9200678,17.4078822,archaeological_site,,Archaeological site recorded in OpenStreetMap.,OpenStreetMap
M16,M16,m16,-88.9196831,17.408374,archaeological_site,,Archaeological site recorded in OpenStreetMap.,OpenStreetMap
M22,M22,m22,-88.9183754,17.4092108,archaeological_site,,Archaeological site recorded in OpenStreetMap.,OpenStreetMap
M27,M27,m27,-88.9176447,17.4095925,archaeological_site,,Archaeological site recorded in OpenStreetMap.,OpenStreetMap
M28,M28,m28,-88.9179754,17.4092108,archaeological_site,,Archaeological site recorded in OpenStreetMap.,OpenStreetMap
M29,M29,m29,-88.9180216,17.4089245,archaeological_site,,Archaeological site recorded in OpenStreetMap.,OpenStreetMap
M21,M21,m21,-88.9187216,17.4085795,archaeological_site,,Archaeological site recorded in OpenStreetMap.,OpenStreetMap
Piramide Gucumatz,Piramide Gucumatz,piramide-gucumatz,-90.8104503,14.1494065,archaeological_site,,Archaeological site recorded in OpenStreetMap.,OpenStreetMap
Sitio Arqueológico Q'umarkaj,Sitio Arqueológico Q'umarkaj,sitio-arqueológico-qumarkaj,-91.1719006,15.0234118,archaeological_site,,Archaeological site recorded in OpenStreetMap.,OpenStreetMap
Santa Rosa,Santa Rosa,santa-rosa,-89.1980276,16.2733014,archaeological_site,,Archaeological site recorded in OpenStreetMap.,OpenStreetMap
Ichkabal,Ichkabal,ichkabal,-88.6675535,18.685515,archaeological_site,,Archaeological site recorded in OpenStreetMap.,OpenStreetMap
All Pines Village,All Pines Village,all-pines-village,-88.2942711,16.7904919,archaeological_site,,Archaeological site recorded in OpenStreetMap.,OpenStreetMap
Sitio Arqueológico de Reforma,Sitio Arqueológico de Reforma,sitio-arqueológico-de-reforma,-91.2978861,17.7690184,archaeological_site,,Archaeological site recorded in OpenStreetMap.,OpenStreetMap
Sitio Arqueológico Aguada Fénix,Sitio Arqueológico Aguada Fénix,sitio-arqueológico-aguada-fénix,-91.1411083,17.805317,archaeological_site,,Archaeological site recorded in OpenStreetMap.,OpenStreetMap
Sitio Arqueológico Bella Vista,Sitio Arqueológico Bella Vista,sitio-arqueológico-bella-vista,-91.0937512,17.3207025,archaeological_site,,Archaeological site recorded in OpenStreetMap.,OpenStreetMap
Sitio Arqueológico Nueva Esperanza,Sitio Arqueológico Nueva Esperanza,sitio-arqueológico-nueva-esperanza,-91.089524,17.3578067,archaeological_site,,Archaeological site recorded in OpenStreetMap.,OpenStreetMap
Sitio Arqueológico La Pea,Sitio Arqueológico La Pea,sitio-arqueológico-la-pea,-91.3439047,17.6400959,archaeological_site,,Archaeological site recorded in OpenStreetMap.,OpenStreetMap
Sitio Arqueológico La Tía,Sitio Arqueológico La Tía,sitio-arqueológico-la-tía,-91.2596136,17.9678543,archaeological_site,,Archaeological site recorded in OpenStreetMap.,OpenStreetMap
Sitio Arqueológico Atotonilco,Sitio Arqueológico Atotonilco,sitio-arqueológico-atotonilco,-91.3055867,17.8685209,archaeological_site,,Archaeological site recorded in OpenStreetMap.,OpenStreetMap
Sitio Arqueológico El Codo,Sitio Arqueológico El Codo,sitio-arqueológico-el-codo,-91.4111719,17.6284653,archaeological_site,,Archaeological site recorded in OpenStreetMap.,OpenStreetMap
Sitio Arqueológico El Bilín III,Sitio Arqueológico El Bilín III,sitio-arqueológico-el-bilín-iii,-91.3700295,17.6221002,archaeological_site,,Archaeological site recorded in OpenStreetMap.,OpenStreetMap
Sitio Arqueológico El Bilín I,Sitio Arqueológico El Bilín I,sitio-arqueológico-el-bilín-i,-91.3595527,17.6148758,archaeological_site,,Archaeological site recorded in OpenStreetMap.,OpenStreetMap
Sitio Arqueológico Otilio Montaño,Sitio Arqueológico Otilio Montaño,sitio-arqueológico-otilio-montaño,-91.3608027,17.5673094,archaeological_site,,Archaeological site recorded in OpenStreetMap.,OpenStreetMap
Sitio Arqueológico Genovevo de la O.,Sitio Arqueológico Genovevo de la O.,sitio-arqueológico-genovevo-de-la-o,-91.3665533,17.5587326,archaeological_site,,Archaeological site recorded in OpenStreetMap.,OpenStreetMap
Sitio Arqueológico La Entrada,Sitio Arqueológico La Entrada,sitio-arqueológico-la-entrada,-91.3879842,17.5360587,archaeological_site,,Archaeological site recorded in OpenStreetMap.,OpenStreetMap
Sitio Arqueológico El Faisán 1ra Sección,Sitio Arqueológico El Faisán 1ra Sección,sitio-arqueológico-el-faisán-1ra-sección,-91.4588481,17.4567366,archaeological_site,,Archaeological site recorded in OpenStreetMap.,OpenStreetMap
Sitio Arqueológico Crisóforo Chiñas,Sitio Arqueológico Crisóforo Chiñas,sitio-arqueológico-crisóforo-chiñas,-91.4771354,17.4591264,archaeological_site,,Archaeological site recorded in OpenStreetMap.,OpenStreetMap
Sitio Arqueológico El Cacho,Sitio Arqueológico El Cacho,sitio-arqueológico-el-cacho,-91.4353144,17.5015284,archaeological_site,,Archaeological site recorded in OpenStreetMap.,OpenStreetMap
Sitio Arqueológico El Mool,Sitio Arqueológico El Mool,sitio-arqueológico-el-mool,-91.4128429,17.5052273,archaeological_site,,Archaeological site recorded in OpenStreetMap.,OpenStreetMap
Sitio Arqueológico Josefa Ruiz,Sitio Arqueológico Josefa Ruiz,sitio-arqueológico-josefa-ruiz,-91.3603789,17.5289741,archaeological_site,,Archaeological site recorded in OpenStreetMap.,OpenStreetMap
Sitio Arqueológico Santo Domingo,Sitio Arqueológico Santo Domingo,sitio-arqueológico-santo-domingo,-91.520673,17.8543318,archaeological_site,,Archaeological site recorded in OpenStreetMap.,OpenStreetMap
Sitio Arqueológico El Coronado,Sitio Arqueológico El Coronado,sitio-arqueológico-el-coronado,-91.4090931,17.7092402,archaeological_site,,Archaeological site recorded in OpenStreetMap.,OpenStreetMap
Sitio Arqueológico Los Loros,Sitio Arqueológico Los Loros,sitio-arqueológico-los-loros,-91.3621545,17.670383,archaeological_site,,Archaeological site recorded in OpenStreetMap.,OpenStreetMap
Sitio Arqueológico Poza Rica,Sitio Arqueológico Poza Rica,sitio-arqueológico-poza-rica,-91.3618165,17.6821131,archaeological_site,,Archaeological site recorded in OpenStreetMap.,OpenStreetMap
Sitio Arqueológico Las Tablas,Sitio Arqueológico Las Tablas,sitio-arqueológico-las-tablas,-91.3838267,17.6299326,archaeological_site,,Archaeological site recorded in OpenStreetMap.,OpenStreetMap
Sitio Arqueológico Zacatonal,Sitio Arqueológico Zacatonal,sitio-arqueológico-zacatonal,-91.3596976,17.6572081,archaeological_site,,Archaeological site recorded in OpenStreetMap.,OpenStreetMap
Sitio Arqueológico Manuel Castillo,Sitio Arqueológico Manuel Castillo,sitio-arqueológico-manuel-castillo,-91.3684148,17.9909786,archaeological_site,,Archaeological site recorded in OpenStreetMap.,OpenStreetMap
Sitio Arqueológico El Pimiental,Sitio Arqueológico El Pimiental,sitio-arqueológico-el-pimiental,-91.499607,17.9872336,archaeological_site,,Archaeological site recorded in OpenStreetMap.,OpenStreetMap
Sitio Arqueológico El Marino,Sitio Arqueológico El Marino,sitio-arqueológico-el-marino,-91.5651012,17.915206,archaeological_site,,Archaeological site recorded in OpenStreetMap.,OpenStreetMap
Sitio Arqueológico Cuajimalpa,Sitio Arqueológico Cuajimalpa,sitio-arqueológico-cuajimalpa,-91.4891517,17.8817798,archaeological_site,,Archaeological site recorded in OpenStreetMap.,OpenStreetMap
Sitio Arqueológico Cecarem,Sitio Arqueológico Cecarem,sitio-arqueológico-cecarem,-91.5165746,17.8292184,archaeological_site,,Archaeological site recorded in OpenStreetMap.,OpenStreetMap
Sitio Arqueológico Santa Elena,Sitio Arqueológico Santa Elena,sitio-arqueológico-santa-elena,-91.150775,17.4965811,archaeological_site,,Archaeological site recorded in OpenStreetMap.,OpenStreetMap
Sitio Arqueológico Pomaná,Sitio Arqueológico Pomaná,sitio-arqueológico-pomaná,-91.5702993,17.4848798,archaeological_site,,Archaeological site recorded in OpenStreetMap.,OpenStreetMap
Sitio Arqueológico San Claudio,Sitio Arqueológico San Claudio,sitio-arqueológico-san-claudio,-91.1594439,17.3368232,archaeological_site,,Archaeological site recorded in OpenStreetMap.,OpenStreetMap
Sitio Arqueológico La Lluvia,Sitio Arqueológico La Lluvia,sitio-arqueológico-la-lluvia,-91.3130164,17.5561038,archaeological_site,,Archaeological site recorded in OpenStreetMap.,OpenStreetMap
Sitio Arqueológico Caudillos del Sur,Sitio Arqueológico Caudillos del Sur,sitio-arqueológico-caudillos-del-sur,-91.3496822,17.5841754,archaeological_site,,Archaeological site recorded in OpenStreetMap.,OpenStreetMap
Sitio Arqueológico El Naranjito 2,Sitio Arqueológico El Naranjito 2,sitio-arqueológico-el-naranjito-2,-91.1185455,17.8397789,archaeological_site,,Archaeological site recorded in OpenStreetMap.,OpenStreetMap
Sitio Arqueológico Ranchería El Sibalito,Sitio Arqueológico Ranchería El Sibalito,sitio-arqueológico-ranchería-el-sibalito,-91.2134206,17.7376507,archaeological_site,,Archaeological site recorded in OpenStreetMap.,OpenStreetMap
Sitio Arqueológico Los Parras,Sitio Arqueológico Los Parras,sitio-arqueológico-los-parras,-91.3096261,17.8532697,archaeological_site,,Archaeological site recorded in OpenStreetMap.,OpenStreetMap
Sitio Arqueológico Cuatro Caminos,Sitio Arqueológico Cuatro Caminos,sitio-arqueológico-cuatro-caminos,-91.2631112,17.8532288,archaeological_site,,Archaeological site recorded in OpenStreetMap.,OpenStreetMap
Sitio Arqueológico El Xote,Sitio Arqueológico El Xote,sitio-arqueológico-el-xote,-91.3409489,17.6311494,archaeological_site,,Archaeological site recorded in OpenStreetMap.,OpenStreetMap
Sitio Arqueológico La Calavera,Sitio Arqueológico La Calavera,sitio-arqueológico-la-calavera,-91.2842095,17.7357091,archaeological_site,,Archaeological site recorded in OpenStreetMap.,OpenStreetMap
Sitio Arqueológico El Atascadero,Sitio Arqueológico El Atascadero,sitio-arqueológico-el-atascadero,-91.3395488,17.7127202,archaeological_site,,Archaeological site recorded in OpenStreetMap.,OpenStreetMap
Zona Arquueologica Tixcuytun,Zona Arquueologica Tixcuytun,zona-arquueologica-tixcuytun,-89.5727706,21.0665619,archaeological_site,,Archaeological site recorded in OpenStreetMap.,OpenStreetMap
"Zona arqueológica Náchoj, Mukana y Nátentsun","Zona arqueológica Náchoj, Mukana y Nátentsun",zona-arqueológica-náchoj-mukana-y-nátentsun,-92.2721589,17.0971338,archaeological_site,,Archaeological site recorded in OpenStreetMap.,OpenStreetMap
Bejucal,Bejucal,bejucal,-89.6159962,17.2250349,archaeological_site,,Archaeological site recorded in OpenStreetMap.,OpenStreetMap
Sitio Arqueologico Nueva Holmul,Sitio Arqueologico Nueva Holmul,sitio-arqueologico-nueva-holmul,-89.2526742,17.3036631,archaeological_site,,Archaeological site recorded in OpenStreetMap.,OpenStreetMap
Kaxil Uinic,Kaxil Uinic,kaxil-uinic,-89.099751,17.5495757,archaeological_site,,Archaeological site recorded in OpenStreetMap.,OpenStreetMap
Tikin-Ha,Tikin-Ha,tikin-ha,-88.9215633,17.698176,archaeological_site,,Archaeological site recorded in OpenStreetMap.,OpenStreetMap
BE-10,BE-10,be-10,-88.9574565,17.6702402,archaeological_site,,Archaeological site recorded in OpenStreetMap.,OpenStreetMap
Acueducto de Esquipulas,Acueducto de Esquipulas,acueducto-de-esquipulas,-89.3569845,14.5739164,archaeological_site,,Archaeological site recorded in OpenStreetMap.,OpenStreetMap
Silver Creek Camp,Silver Creek Camp,silver-creek-camp,-88.463539,16.7005464,archaeological_site,,Archaeological site recorded in OpenStreetMap.,OpenStreetMap
Alabama Wharf,Alabama Wharf,alabama-wharf,-88.4117026,16.5475792,archaeological_site,,Archaeological site recorded in OpenStreetMap.,OpenStreetMap
Xpicilha,Xpicilha,xpicilha,-89.2153065,16.0269577,archaeological_site,,Archaeological site recorded in OpenStreetMap.,OpenStreetMap
Santiago Jalacte,Santiago Jalacte,santiago-jalacte,-89.2009999,16.2465145,archaeological_site,,Archaeological site recorded in OpenStreetMap.,OpenStreetMap
Commerce Bight Village,Commerce Bight Village,commerce-bight-village,-88.3139335,16.8691604,archaeological_site,,Archaeological site recorded in OpenStreetMap.,OpenStreetMap
Xunantunich,Xunantunich,xunantunich,-89.1417767,17.0897197,archaeological_site,,Archaeological site recorded in OpenStreetMap.,OpenStreetMap
Estela 28,Estela 28,estela-28,-87.72657,20.490398,archaeological_site,,Archaeological site recorded in OpenStreetMap.,OpenStreetMap
Gruta El Gigante,Gruta El Gigante,gruta-el-gigante,-88.0574087,14.2280445,archaeological_site,,Archaeological site recorded in OpenStreetMap.,OpenStreetMap
Tacuscalco - Los Cerritos,Tacuscalco - Los Cerritos,tacuscalco-los-cerritos,-89.7215715,13.7026482,archaeological_site,,Archaeological site recorded in OpenStreetMap.,OpenStreetMap
Pacbitun,Pacbitun,pacbitun,-88.9947697,17.0921143,archaeological_site,,Archaeological site recorded in OpenStreetMap.,OpenStreetMap
Noh K'uh,Noh K'uh,noh-kuh,-91.6196449,17.1038732,archaeological_site,,Archaeological site recorded in OpenStreetMap.,OpenStreetMap
La Punta,La Punta,la-punta,-91.6327158,17.1209744,archaeological_site,,Archaeological site recorded in OpenStreetMap.,OpenStreetMap
Tzunun,Tzunun,tzunun,-91.6243693,17.1172191,archaeological_site,,Archaeological site recorded in OpenStreetMap.,OpenStreetMap
Tz'ib'ana,Tz'ib'ana,tzibana,-91.6299681,17.1256819,archaeological_site,,Archaeological site recorded in OpenStreetMap.,OpenStreetMap
Munic Ná,Munic Ná,munic-ná,-91.6368384,17.1297486,archaeological_site,,Archaeological site recorded in OpenStreetMap.,OpenStreetMap
Xtabay,Xtabay,xtabay,-91.6370798,17.1282056,archaeological_site,,Archaeological site recorded in OpenStreetMap.,OpenStreetMap
Chak Ak Tun,Chak Ak Tun,chak-ak-tun,-91.6365856,17.1257014,archaeological_site,,Archaeological site recorded in OpenStreetMap.,OpenStreetMap
Kuh Nabaat,Kuh Nabaat,kuh-nabaat,-91.621536,17.125869,archaeological_site,,Archaeological site recorded in OpenStreetMap.,OpenStreetMap
Kakoch,Kakoch,kakoch,-91.6346809,17.1359041,archaeological_site,,Archaeological site recorded in OpenStreetMap.,OpenStreetMap
Mensabak,Mensabak,mensabak,-91.6389665,17.1378799,archaeological_site,,Archaeological site recorded in OpenStreetMap.,OpenStreetMap
Sakapuk,Sakapuk,sakapuk,-91.6158469,17.1207914,archaeological_site,,Archaeological site recorded in OpenStreetMap.,OpenStreetMap
Sak Tat,Sak Tat,sak-tat,-91.6122881,17.1187196,archaeological_site,,Archaeological site recorded in OpenStreetMap.,OpenStreetMap
Kinbor,Kinbor,kinbor,-91.6138044,17.1123724,archaeological_site,,Archaeological site recorded in OpenStreetMap.,OpenStreetMap
Joton K'ak,Joton K'ak,joton-kak,-91.6104837,17.1103963,archaeological_site,,Archaeological site recorded in OpenStreetMap.,OpenStreetMap
Aj Chaj Chi,Aj Chaj Chi,aj-chaj-chi,-91.6149581,17.1119536,archaeological_site,,Archaeological site recorded in OpenStreetMap.,OpenStreetMap
Sitio Arqueológico La Resaca,Sitio Arqueológico La Resaca,sitio-arqueológico-la-resaca,-91.1448205,17.5326571,archaeological_site,,Archaeological site recorded in OpenStreetMap.,OpenStreetMap
Ruinas mayas Santa Elena Dziuche,Ruinas mayas Santa Elena Dziuche,ruinas-mayas-santa-elena-dziuche,-88.8127092,19.878106,archaeological_site,,Archaeological site recorded in OpenStreetMap.,OpenStreetMap
Ruinas Mayas Chichankanab,Ruinas Mayas Chichankanab,ruinas-mayas-chichankanab,-88.7637527,19.871437,archaeological_site,,Archaeological site recorded in OpenStreetMap.,OpenStreetMap
RUINAS MAYAS DZOYOLA,RUINAS MAYAS DZOYOLA,ruinas-mayas-dzoyola,-88.4581366,19.9654883,archaeological_site,,Archaeological site recorded in OpenStreetMap.,OpenStreetMap
Tortuguero (sitio arqueológico),Tortuguero (sitio arqueológico),tortuguero-sitio-arqueológico,-92.5676613,17.6871568,archaeological_site,,Archaeological site recorded in OpenStreetMap.,OpenStreetMap
Ocomtún,Ocomtún,ocomtún,-89.9693066,18.9142236,archaeological_site,,Archaeological site recorded in OpenStreetMap.,OpenStreetMap
Antiguo Puente Cuscatlan,Antiguo Puente Cuscatlan,antiguo-puente-cuscatlan,-88.5638278,13.6164936,archaeological_site,,Archaeological site recorded in OpenStreetMap.,OpenStreetMap
Aguacate,Aguacate,aguacate,-89.0720918,17.328018,archaeological_site,,Archaeological site recorded in OpenStreetMap.,OpenStreetMap
Yalbac,Yalbac,yalbac,-88.9432727,17.3814233,archaeological_site,,Archaeological site recorded in OpenStreetMap.,OpenStreetMap
Yacimiento Arqueológico UPY,Yacimiento Arqueológico UPY,yacimiento-arqueológico-upy,-89.7373483,20.9893966,archaeological_site,,Archaeological site recorded in OpenStreetMap.,OpenStreetMap
Kinal,Kinal,kinal,-89.2448483,17.7001612,archaeological_site,,Archaeological site recorded in OpenStreetMap.,OpenStreetMap
Puuc Tun T'eel,Puuc Tun T'eel,puuc-tun-teel,-88.1457186,18.3423471,archaeological_site,,Archaeological site recorded in OpenStreetMap.,OpenStreetMap
Actuncan,Actuncan,actuncan,-89.1415384,17.1108839,archaeological_site,,Archaeological site recorded in OpenStreetMap.,OpenStreetMap
Xcombo,Xcombo,xcombo,-89.3523716,21.3132176,archaeological_site,,Archaeological site recorded in OpenStreetMap.,OpenStreetMap
Tipan Chen Uitz Archaeological Site,Tipan Chen Uitz Archaeological Site,tipan-chen-uitz-archaeological-site,-88.828001,17.1151902,archaeological_site,,Archaeological site recorded in OpenStreetMap.,OpenStreetMap
Cahal Uitz Na Archaeological Site,Cahal Uitz Na Archaeological Site,cahal-uitz-na-archaeological-site,-88.8587551,17.111186,archaeological_site,,Archaeological site recorded in OpenStreetMap.,OpenStreetMap
Isla de Piedras,Isla de Piedras,isla-de-piedras,-90.4976181,20.3432986,archaeological_site,,Archaeological site recorded in OpenStreetMap.,OpenStreetMap
Ciudad prehispánica de Uxmal,Ciudad prehispánica de Uxmal,ciudad-prehispánica-de-uxmal,-89.7708844,20.3594487,archaeological_site,,Archaeological site recorded in OpenStreetMap.,OpenStreetMap
Zona Arqueológica de Edzná,Zona Arqueológica de Edzná,zona-arqueológica-de-edzná,-90.2330865,19.5976683,archaeological_site,,Archaeological site recorded in OpenStreetMap.,OpenStreetMap
Zona arqueológica de Kabáh,Zona arqueológica de Kabáh,zona-arqueológica-de-kabáh,-89.649208,20.2493529,archaeological_site,,Archaeological site recorded in OpenStreetMap.,OpenStreetMap
Zona Arqueológica de Xlapak,Zona Arqueológica de Xlapak,zona-arqueológica-de-xlapak,-89.607699,20.1746472,archaeological_site,,Archaeological site recorded in OpenStreetMap.,OpenStreetMap
Sayil,Sayil,sayil,-89.6523447,20.1735731,archaeological_site,,Archaeological site recorded in OpenStreetMap.,OpenStreetMap
Labná,Labná,labná,-89.5786769,20.1719853,archaeological_site,,Archaeological site recorded in OpenStreetMap.,OpenStreetMap
Zona Arqueológica Hochob,Zona Arqueológica Hochob,zona-arqueológica-hochob,-89.7703657,19.4086039,archaeological_site,,Archaeological site recorded in OpenStreetMap.,OpenStreetMap
Kulubá,Kulubá,kulubá,-87.8462211,21.1148581,archaeological_site,,Archaeological site recorded in OpenStreetMap.,OpenStreetMap
Zona arqueológica El Tigre (Itzamkanac),Zona arqueológica El Tigre (Itzamkanac),zona-arqueológica-el-tigre-itzamkanac,-90.8367153,18.1208365,archaeological_site,,Archaeological site recorded in OpenStreetMap.,OpenStreetMap
Zona Arqueológica de Jaina,Zona Arqueológica de Jaina,zona-arqueológica-de-jaina,-90.4857872,20.2088087,archaeological_site,,Archaeological site recorded in OpenStreetMap.,OpenStreetMap
Zona arqueológica de Tenam Puente,Zona arqueológica de Tenam Puente,zona-arqueológica-de-tenam-puente,-92.1061962,16.1409229,archaeological_site,,Archaeological site recorded in OpenStreetMap.,OpenStreetMap
Zona arqueológica de Xpujil,Zona arqueológica de Xpujil,zona-arqueológica-de-xpujil,-89.4040775,18.5099665,archaeological_site,,Archaeological site recorded in OpenStreetMap.,OpenStreetMap
Zona arqueológica de Becán,Zona arqueológica de Becán,zona-arqueológica-de-becán,-89.4670129,18.5169136,archaeological_site,,Archaeological site recorded in OpenStreetMap.,OpenStreetMap
Zona arqueológica de Chicanná,Zona arqueológica de Chicanná,zona-arqueológica-de-chicanná,-89.4867584,18.5078611,archaeological_site,,Archaeological site recorded in OpenStreetMap.,OpenStreetMap
Zona Arqueológica Hormiguero,Zona Arqueológica Hormiguero,zona-arqueológica-hormiguero,-89.4921555,18.4104236,archaeological_site,,Archaeological site recorded in OpenStreetMap.,OpenStreetMap
Río Bec,Río Bec,río-bec,-89.3582615,18.379245,archaeological_site,,Archaeological site recorded in OpenStreetMap.,OpenStreetMap
Zona arqueológica de Balamkú,Zona arqueológica de Balamkú,zona-arqueológica-de-balamkú,-89.9449412,18.5576192,archaeological_site,,Archaeological site recorded in OpenStreetMap.,OpenStreetMap
Zona Arqueológica Calakmul,Zona Arqueológica Calakmul,zona-arqueológica-calakmul,-89.8065528,18.108473,archaeological_site,,Archaeological site recorded in OpenStreetMap.,OpenStreetMap
Zona Arqueológica de Kohunlich,Zona Arqueológica de Kohunlich,zona-arqueológica-de-kohunlich,-88.7900896,18.4174302,archaeological_site,,Archaeological site recorded in OpenStreetMap.,OpenStreetMap
Zona arqueológica de Dzibanché,Zona arqueológica de Dzibanché,zona-arqueológica-de-dzibanché,-88.759,18.6394948,archaeological_site,,Archaeological site recorded in OpenStreetMap.,OpenStreetMap
Muyil - Chunyaxché,Muyil - Chunyaxché,muyil-chunyaxché,-87.6111737,20.0792926,archaeological_site,,Archaeological site recorded in OpenStreetMap.,OpenStreetMap
Zona arqueológica de Chacchoben,Zona arqueológica de Chacchoben,zona-arqueológica-de-chacchoben,-88.2318485,19.0014402,archaeological_site,,Archaeological site recorded in OpenStreetMap.,OpenStreetMap
Zona Arqueológica de Dzibilchaltún,Zona Arqueológica de Dzibilchaltún,zona-arqueológica-de-dzibilchaltún,-89.5969433,21.0923234,archaeological_site,,Archaeological site recorded in OpenStreetMap.,OpenStreetMap
Zona Arqueológica de Mayapán,Zona Arqueológica de Mayapán,zona-arqueológica-de-mayapán,-89.4603666,20.6292414,archaeological_site,,Archaeological site recorded in OpenStreetMap.,OpenStreetMap
Xkambó,Xkambó,xkambó,-89.3523754,21.3132769,archaeological_site,,Archaeological site recorded in OpenStreetMap.,OpenStreetMap
Zona Arqueologica Palenque,Zona Arqueologica Palenque,zona-arqueologica-palenque,-92.0449961,17.484065,archaeological_site,,Archaeological site recorded in OpenStreetMap.,OpenStreetMap
Yaxhá,Yaxhá,yaxhá,-89.4011386,17.0747054,archaeological_site,,Archaeological site recorded in OpenStreetMap.,OpenStreetMap
Caracol,Caracol,caracol,-89.1171861,16.7611998,archaeological_site,,Archaeological site recorded in OpenStreetMap.,OpenStreetMap
Zona Arqueológica Dzibilnochac,Zona Arqueológica Dzibilnochac,zona-arqueológica-dzibilnochac,-89.5949418,19.5778228,archaeological_site,,Archaeological site recorded in OpenStreetMap.,OpenStreetMap
Antigua Penitenciaria Central,Antigua Penitenciaria Central,antigua-penitenciaria-central,-87.2008608,14.1030496,archaeological_site,,Archaeological site recorded in OpenStreetMap.,OpenStreetMap
San Gervasio,San Gervasio,san-gervasio,-86.8476038,20.5016619,archaeological_site,,Archaeological site recorded in OpenStreetMap.,OpenStreetMap
Mixco Viejo,Mixco Viejo,mixco-viejo,-90.6641045,14.8724394,archaeological_site,,Archaeological site recorded in OpenStreetMap.,OpenStreetMap
Chichen Itzá,Chichen Itzá,chichen-itzá,-88.5691327,20.683172,archaeological_site,,Archaeological site recorded in OpenStreetMap.,OpenStreetMap
Zona Arqueológica Moral-Reforma,Zona Arqueológica Moral-Reforma,zona-arqueológica-moral-reforma,-91.2990318,17.7691293,archaeological_site,,Archaeological site recorded in OpenStreetMap.,OpenStreetMap
Chunchucmil,Chunchucmil,chunchucmil,-90.1900246,20.638175,archaeological_site,,Archaeological site recorded in OpenStreetMap.,OpenStreetMap
Zona Arqueológica Cobá,Zona Arqueológica Cobá,zona-arqueológica-cobá,-87.7262109,20.4885908,archaeological_site,,Archaeological site recorded in OpenStreetMap.,OpenStreetMap
Kiuic,Kiuic,kiuic,-89.5511729,20.096715,archaeological_site,,Archaeological site recorded in OpenStreetMap.,OpenStreetMap
Ruinas el Lagartero,Ruinas el Lagartero,ruinas-el-lagartero,-91.8839028,15.8273652,archaeological_site,,Archaeological site recorded in OpenStreetMap.,OpenStreetMap
Zona arqueológica de Yaxchilan,Zona arqueológica de Yaxchilan,zona-arqueológica-de-yaxchilan,-90.9657024,16.8987797,archaeological_site,,Archaeological site recorded in OpenStreetMap.,OpenStreetMap
Quiriguá,Quiriguá,quiriguá,-89.0400319,15.2706249,archaeological_site,,Archaeological site recorded in OpenStreetMap.,OpenStreetMap
Kaminal Juyú,Kaminal Juyú,kaminal-juyú,-90.5482354,14.6321179,archaeological_site,,Archaeological site recorded in OpenStreetMap.,OpenStreetMap
Zona arqueológica de Chacmultún,Zona arqueológica de Chacmultún,zona-arqueológica-de-chacmultún,-89.3421076,20.1712,archaeological_site,,Archaeological site recorded in OpenStreetMap.,OpenStreetMap
Juego de Pelota,Juego de Pelota,juego-de-pelota,-87.7317604,20.490357,archaeological_site,,Archaeological site recorded in OpenStreetMap.,OpenStreetMap
Parroquia San Sebastián,Parroquia San Sebastián,parroquia-san-sebastián,-90.7364458,14.5642576,archaeological_site,,Archaeological site recorded in OpenStreetMap.,OpenStreetMap
Miraflores,Miraflores,miraflores,-90.5537317,14.6213145,archaeological_site,,Archaeological site recorded in OpenStreetMap.,OpenStreetMap
Zona arqueológica de Kinichná,Zona arqueológica de Kinichná,zona-arqueológica-de-kinichná,-88.7673637,18.6608831,archaeological_site,,Archaeological site recorded in OpenStreetMap.,OpenStreetMap
Grupo de la Fecha o de la Serie Inicial,Grupo de la Fecha o de la Serie Inicial,grupo-de-la-fecha-o-de-la-serie-inicial,-88.5721633,20.6713697,archaeological_site,,Archaeological site recorded in OpenStreetMap.,OpenStreetMap
Zona Arqueológica El Rey,Zona Arqueológica El Rey,zona-arqueológica-el-rey,-86.7813768,21.0611224,archaeological_site,,Archaeological site recorded in OpenStreetMap.,OpenStreetMap
Templo de las Máscaras,Templo de las Máscaras,templo-de-las-máscaras,-89.624153,17.2222085,archaeological_site,,Archaeological site recorded in OpenStreetMap.,OpenStreetMap
Templo del Gran Jaguar,Templo del Gran Jaguar,templo-del-gran-jaguar,-89.6230585,17.2220533,archaeological_site,,Archaeological site recorded in OpenStreetMap.,OpenStreetMap
Acrópolis Central,Acrópolis Central,acrópolis-central,-89.6230176,17.221227,archaeological_site,,Archaeological site recorded in OpenStreetMap.,OpenStreetMap
Acrópolis del Norte,Acrópolis del Norte,acrópolis-del-norte,-89.6234549,17.2227068,archaeological_site,,Archaeological site recorded in OpenStreetMap.,OpenStreetMap
La Gran Plaza,La Gran Plaza,la-gran-plaza,-89.6236201,17.2220144,archaeological_site,,Archaeological site recorded in OpenStreetMap.,OpenStreetMap
Templo V,Templo V,templo-v,-89.6237351,17.2197112,archaeological_site,,Archaeological site recorded in OpenStreetMap.,OpenStreetMap
Píramide Mundo Perdido,Píramide Mundo Perdido,píramide-mundo-perdido,-89.6272544,17.2199966,archaeological_site,,Archaeological site recorded in OpenStreetMap.,OpenStreetMap
Templo de la Serpiente Bicéfala,Templo de la Serpiente Bicéfala,templo-de-la-serpiente-bicéfala,-89.6298775,17.2237059,archaeological_site,,Archaeological site recorded in OpenStreetMap.,OpenStreetMap
Templo del Gran Sacerdote,Templo del Gran Sacerdote,templo-del-gran-sacerdote,-89.6260591,17.2219889,archaeological_site,,Archaeological site recorded in OpenStreetMap.,OpenStreetMap
El Mirador,El Mirador,el-mirador,-89.9136741,17.7543005,archaeological_site,,Archaeological site recorded in OpenStreetMap.,OpenStreetMap
Zona arqueológica de Bonampak,Zona arqueológica de Bonampak,zona-arqueológica-de-bonampak,-91.0635678,16.7031281,archaeological_site,,Archaeological site recorded in OpenStreetMap.,OpenStreetMap
Zona arqueológica de Lamay,Zona arqueológica de Lamay,zona-arqueológica-de-lamay,-88.7701258,18.6431438,archaeological_site,,Archaeological site recorded in OpenStreetMap.,OpenStreetMap
Zona Arqueológica de Tutil,Zona Arqueológica de Tutil,zona-arqueológica-de-tutil,-88.7791304,18.6428351,archaeological_site,,Archaeological site recorded in OpenStreetMap.,OpenStreetMap
El Meco,El Meco,el-meco,-86.8039371,21.2114414,archaeological_site,,Archaeological site recorded in OpenStreetMap.,OpenStreetMap
Ichkabal,Ichkabal,ichkabal,-88.6272364,18.6855587,archaeological_site,,Archaeological site recorded in OpenStreetMap.,OpenStreetMap
Izapa,Izapa,izapa,-92.1769031,14.9283503,archaeological_site,,Archaeological site recorded in OpenStreetMap.,OpenStreetMap
Zona Arqueológica de San Claudio,Zona Arqueológica de San Claudio,zona-arqueológica-de-san-claudio,-91.1568123,17.3356714,archaeological_site,,Archaeological site recorded in OpenStreetMap.,OpenStreetMap
Parque Arqueológico El Puente,Parque Arqueológico El Puente,parque-arqueológico-el-puente,-88.7881798,15.1109584,archaeological_site,,Archaeological site recorded in OpenStreetMap.,OpenStreetMap
Cancuén,Cancuén,cancuén,-90.041639,16.0123317,archaeological_site,,Archaeological site recorded in OpenStreetMap.,OpenStreetMap
Chutnamit,Chutnamit,chutnamit,-91.2388639,14.6529112,archaeological_site,,Archaeological site recorded in OpenStreetMap.,OpenStreetMap
Cival,Cival,cival,-89.2556094,17.3575797,archaeological_site,,Archaeological site recorded in OpenStreetMap.,OpenStreetMap
Holmul,Holmul,holmul,-89.2808777,17.300805,archaeological_site,,Archaeological site recorded in OpenStreetMap.,OpenStreetMap
El Chal,El Chal,el-chal,-89.6502106,16.6223062,archaeological_site,,Archaeological site recorded in OpenStreetMap.,OpenStreetMap
El Naranjo,El Naranjo,el-naranjo,-89.2599189,17.1341724,archaeological_site,,Archaeological site recorded in OpenStreetMap.,OpenStreetMap
Sitio arqueológico Nakum,Sitio arqueológico Nakum,sitio-arqueológico-nakum,-89.4054427,17.1763986,archaeological_site,,Archaeological site recorded in OpenStreetMap.,OpenStreetMap
Toniná,Toniná,toniná,-92.0097605,16.9003854,archaeological_site,,Archaeological site recorded in OpenStreetMap.,OpenStreetMap
Casa de las Columnas,Casa de las Columnas,casa-de-las-columnas,-87.4294297,20.2149365,archaeological_site,,Archaeological site recorded in OpenStreetMap.,OpenStreetMap
Casa del Cenote,Casa del Cenote,casa-del-cenote,-87.4283123,20.2161835,archaeological_site,,Archaeological site recorded in OpenStreetMap.,OpenStreetMap
El Castillo,El Castillo,el-castillo,-87.4289255,20.2146521,archaeological_site,,Archaeological site recorded in OpenStreetMap.,OpenStreetMap
Plataforma,Plataforma,plataforma,-87.429507,20.2147105,archaeological_site,,Archaeological site recorded in OpenStreetMap.,OpenStreetMap
Gran Palacio,Gran Palacio,gran-palacio,-87.429302,20.2152759,archaeological_site,,Archaeological site recorded in OpenStreetMap.,OpenStreetMap
Plataforma de Entierro 13,Plataforma de Entierro 13,plataforma-de-entierro-13,-87.4296455,20.2145263,archaeological_site,,Archaeological site recorded in OpenStreetMap.,OpenStreetMap
Plataforma de la Danza,Plataforma de la Danza,plataforma-de-la-danza,-87.429167,20.2146959,archaeological_site,,Archaeological site recorded in OpenStreetMap.,OpenStreetMap
Case del Noroeste,Case del Noroeste,case-del-noroeste,-87.4289421,20.2161938,archaeological_site,,Archaeological site recorded in OpenStreetMap.,OpenStreetMap
La Gran Plataforma,La Gran Plataforma,la-gran-plataforma,-87.4289932,20.2160456,archaeological_site,,Archaeological site recorded in OpenStreetMap.,OpenStreetMap
Templo del mar,Templo del mar,templo-del-mar,-87.4292897,20.2131918,archaeological_site,,Archaeological site recorded in OpenStreetMap.,OpenStreetMap
Templo de los Frescos,Templo de los Frescos,templo-de-los-frescos,-87.4296126,20.214762,archaeological_site,,Archaeological site recorded in OpenStreetMap.,OpenStreetMap
Templo del Dios del Viento,Templo del Dios del Viento,templo-del-dios-del-viento,-87.428262,20.2154978,archaeological_site,,Archaeological site recorded in OpenStreetMap.,OpenStreetMap
Torre de Viagía,Torre de Viagía,torre-de-viagía,-87.4294484,20.2166581,archaeological_site,,Archaeological site recorded in OpenStreetMap.,OpenStreetMap
Torre de Viagía,Torre de Viagía,torre-de-viagía,-87.4308155,20.2132705,archaeological_site,,Archaeological site recorded in OpenStreetMap.,OpenStreetMap
La Iglesia,La Iglesia,la-iglesia,-87.7318191,20.4899488,archaeological_site,,Archaeological site recorded in OpenStreetMap.,OpenStreetMap
Conjunto de Las Pinturas,Conjunto de Las Pinturas,conjunto-de-las-pinturas,-87.7251869,20.4901426,archaeological_site,,Archaeological site recorded in OpenStreetMap.,OpenStreetMap
Nohoch Mul,Nohoch Mul,nohoch-mul,-87.7202809,20.4946562,archaeological_site,,Archaeological site recorded in OpenStreetMap.,OpenStreetMap
Xaibe,Xaibe,xaibe,-87.7217187,20.4933071,archaeological_site,,Archaeological site recorded in OpenStreetMap.,OpenStreetMap
Acrópolis-Conjunto Cobá,Acrópolis-Conjunto Cobá,acrópolis-conjunto-cobá,-87.7318707,20.4896916,archaeological_site,,Archaeological site recorded in OpenStreetMap.,OpenStreetMap
Grupo de las Mil Columnas,Grupo de las Mil Columnas,grupo-de-las-mil-columnas,-88.5670209,20.6826421,archaeological_site,,Archaeological site recorded in OpenStreetMap.,OpenStreetMap
Komchén,Komchén,komchén,-89.6455177,21.1142279,archaeological_site,,Archaeological site recorded in OpenStreetMap.,OpenStreetMap
Calotmul,Calotmul,calotmul,-89.4593383,21.058563,archaeological_site,,Archaeological site recorded in OpenStreetMap.,OpenStreetMap
Xtobó,Xtobó,xtobó,-89.7637172,20.9872265,archaeological_site,,Archaeological site recorded in OpenStreetMap.,OpenStreetMap
Zona Arqueológica Kintunich,Zona Arqueológica Kintunich,zona-arqueológica-kintunich,-89.7604999,20.9983017,archaeological_site,,Archaeological site recorded in OpenStreetMap.,OpenStreetMap
Laí,Laí,laí,-89.8785094,20.9796264,archaeological_site,,Archaeological site recorded in OpenStreetMap.,OpenStreetMap
Ek Balam,Ek Balam,ek-balam,-88.1362936,20.8904254,archaeological_site,,Archaeological site recorded in OpenStreetMap.,OpenStreetMap
Sitio Arqueológico Cambote,Sitio Arqueológico Cambote,sitio-arqueológico-cambote,-91.5050409,15.3088563,archaeological_site,,Archaeological site recorded in OpenStreetMap.,OpenStreetMap
Zaculeu,Zaculeu,zaculeu,-91.4929895,15.3332488,archaeological_site,,Archaeological site recorded in OpenStreetMap.,OpenStreetMap
Tak'alik Ab'a,Tak'alik Ab'a,takalik-aba,-91.7320965,14.6377489,archaeological_site,,Archaeological site recorded in OpenStreetMap.,OpenStreetMap
Chumul,Chumul,chumul,-89.1858519,19.8149572,archaeological_site,,Archaeological site recorded in OpenStreetMap.,OpenStreetMap
Cahal Pech Archaeological Reserve,Cahal Pech Archaeological Reserve,cahal-pech-archaeological-reserve,-89.0738578,17.1454465,archaeological_site,,Archaeological site recorded in OpenStreetMap.,OpenStreetMap
Zona arqueologica de Izamal (Habuk),Zona arqueologica de Izamal (Habuk),zona-arqueologica-de-izamal-habuk,-89.0177193,20.9291797,archaeological_site,,Archaeological site recorded in OpenStreetMap.,OpenStreetMap
Palacio de los Murciélagos,Palacio de los Murciélagos,palacio-de-los-murciélagos,-89.6276031,17.2219681,archaeological_site,,Archaeological site recorded in OpenStreetMap.,OpenStreetMap
Conjunto G,Conjunto G,conjunto-g,-89.6200646,17.2189332,archaeological_site,,Archaeological site recorded in OpenStreetMap.,OpenStreetMap
Group Q East Pyramid,Group Q East Pyramid,group-q-east-pyramid,-89.6189189,17.2251465,archaeological_site,,Archaeological site recorded in OpenStreetMap.,OpenStreetMap
Group Q Stela Enclosure,Group Q Stela Enclosure,group-q-stela-enclosure,-89.6193527,17.2256099,archaeological_site,,Archaeological site recorded in OpenStreetMap.,OpenStreetMap
Temple 5C-49,Temple 5C-49,temple-5c-49,-89.6279747,17.2206852,archaeological_site,,Archaeological site recorded in OpenStreetMap.,OpenStreetMap
Structure 5D-15,Structure 5D-15,structure-5d-15,-89.6245245,17.2232908,archaeological_site,,Archaeological site recorded in OpenStreetMap.,OpenStreetMap
Structure 5D-96,Structure 5D-96,structure-5d-96,-89.6253815,17.2197045,archaeological_site,,Archaeological site recorded in OpenStreetMap.,OpenStreetMap
Structure 5D-99,Structure 5D-99,structure-5d-99,-89.6253161,17.2200919,archaeological_site,,Archaeological site recorded in OpenStreetMap.,OpenStreetMap
Structure 5D-98,Structure 5D-98,structure-5d-98,-89.6253286,17.219987,archaeological_site,,Archaeological site recorded in OpenStreetMap.,OpenStreetMap
Structure 5D-97,Structure 5D-97,structure-5d-97,-89.6253379,17.2198691,archaeological_site,,Archaeological site recorded in OpenStreetMap.,OpenStreetMap
Structure 5D-95,Structure 5D-95,structure-5d-95,-89.6253841,17.2195398,archaeological_site,,Archaeological site recorded in OpenStreetMap.,OpenStreetMap
Structure 5D-94,Structure 5D-94,structure-5d-94,-89.625399,17.2194345,archaeological_site,,Archaeological site recorded in OpenStreetMap.,OpenStreetMap
Structure 5D-93,Structure 5D-93,structure-5d-93,-89.625412,17.2193149,archaeological_site,,Archaeological site recorded in OpenStreetMap.,OpenStreetMap
Structure 5D-77,Structure 5D-77,structure-5d-77,-89.626614,17.2206842,archaeological_site,,Archaeological site recorded in OpenStreetMap.,OpenStreetMap
Structure 5C-45,Structure 5C-45,structure-5c-45,-89.6272521,17.220845,archaeological_site,,Archaeological site recorded in OpenStreetMap.,OpenStreetMap
Structure 5C-46,Structure 5C-46,structure-5c-46,-89.6275002,17.220724,archaeological_site,,Archaeological site recorded in OpenStreetMap.,OpenStreetMap
Lapiaz,Lapiaz,lapiaz,-89.6263162,17.2197618,archaeological_site,,Archaeological site recorded in OpenStreetMap.,OpenStreetMap
Actun Tunichil Muknal Natural Monument,Actun Tunichil Muknal Natural Monument,actun-tunichil-muknal-natural-monument,-88.8574042,17.1202032,archaeological_site,,Archaeological site recorded in OpenStreetMap.,OpenStreetMap
las ruinas de EL REY,las ruinas de EL REY,las-ruinas-de-el-rey,-86.7814633,21.0614751,archaeological_site,,Archaeological site recorded in OpenStreetMap.,OpenStreetMap
Altún Ha,Altún Ha,altún-ha,-88.3470377,17.764473,archaeological_site,,Archaeological site recorded in OpenStreetMap.,OpenStreetMap
Group Q West Pyramid,Group Q West Pyramid,group-q-west-pyramid,-89.6198854,17.2252678,archaeological_site,,Archaeological site recorded in OpenStreetMap.,OpenStreetMap
Templo Wajxaklajunh (Yol K'u),Templo Wajxaklajunh (Yol K'u),templo-wajxaklajunh-yol-ku,-91.4739091,15.8289727,archaeological_site,,Archaeological site recorded in OpenStreetMap.,OpenStreetMap
Parque Arqueológico San Andrés,Parque Arqueológico San Andrés,parque-arqueológico-san-andrés,-89.3885255,13.8007593,archaeological_site,,Archaeological site recorded in OpenStreetMap.,OpenStreetMap
Zona Arqueológica Xel Há,Zona Arqueológica Xel Há,zona-arqueológica-xel-há,-87.3691127,20.3218703,archaeological_site,,Archaeological site recorded in OpenStreetMap.,OpenStreetMap
La Palangana,La Palangana,la-palangana,-90.5475562,14.6309692,archaeological_site,,Archaeological site recorded in OpenStreetMap.,OpenStreetMap
Acropolis,Acropolis,acropolis,-90.5491167,14.6327635,archaeological_site,,Archaeological site recorded in OpenStreetMap.,OpenStreetMap
Zona arqueológica de Aké,Zona arqueológica de Aké,zona-arqueológica-de-aké,-89.3003831,20.9467213,archaeological_site,,Archaeological site recorded in OpenStreetMap.,OpenStreetMap
Zona arqueológica de Acanceh,Zona arqueológica de Acanceh,zona-arqueológica-de-acanceh,-89.4521925,20.8135769,archaeological_site,,Archaeological site recorded in OpenStreetMap.,OpenStreetMap
Zona arqueológica de Acanceh,Zona arqueológica de Acanceh,zona-arqueológica-de-acanceh,-89.452387,20.810615,archaeological_site,,Archaeological site recorded in OpenStreetMap.,OpenStreetMap
Edificio 33,Edificio 33,edificio-33,-90.9647911,16.8986638,archaeological_site,,Archaeological site recorded in OpenStreetMap.,OpenStreetMap
Edificio 41,Edificio 41,edificio-41,-90.9665351,16.8965335,archaeological_site,,Archaeological site recorded in OpenStreetMap.,OpenStreetMap
Zona arqueológica de Limones,Zona arqueológica de Limones,zona-arqueológica-de-limones,-88.1103388,19.0214159,archaeological_site,,Archaeological site recorded in OpenStreetMap.,OpenStreetMap
Area 3 y 4,Area 3 y 4,area-3-y-4,-89.3565254,13.8276606,archaeological_site,,Archaeological site recorded in OpenStreetMap.,OpenStreetMap
Area 1,Area 1,area-1,-89.3558414,13.8273389,archaeological_site,,Archaeological site recorded in OpenStreetMap.,OpenStreetMap
Area 2,Area 2,area-2,-89.3564249,13.8273112,archaeological_site,,Archaeological site recorded in OpenStreetMap.,OpenStreetMap
Zona arqueológica de Chinkultic,Zona arqueológica de Chinkultic,zona-arqueológica-de-chinkultic,-91.7838471,16.1262728,archaeological_site,,Archaeological site recorded in OpenStreetMap.,OpenStreetMap
Sitio Arqueológico El Cambio,Sitio Arqueológico El Cambio,sitio-arqueológico-el-cambio,-89.3571362,13.8076589,archaeological_site,,Archaeological site recorded in OpenStreetMap.,OpenStreetMap
Nim Li Punit,Nim Li Punit,nim-li-punit,-88.8233764,16.3213175,archaeological_site,,Archaeological site recorded in OpenStreetMap.,OpenStreetMap
Parque Arqueológico Casa Blanca,Parque Arqueológico Casa Blanca,parque-arqueológico-casa-blanca,-89.6722127,13.9889979,archaeological_site,,Archaeological site recorded in OpenStreetMap.,OpenStreetMap
Complejo Arqueológico Cihuatán,Complejo Arqueológico Cihuatán,complejo-arqueológico-cihuatán,-89.1651694,13.9810814,archaeological_site,,Archaeological site recorded in OpenStreetMap.,OpenStreetMap
Pyramid,Pyramid,pyramid,-89.164121,13.9806189,archaeological_site,,Archaeological site recorded in OpenStreetMap.,OpenStreetMap
Estructura 5,Estructura 5,estructura-5,-89.6725306,13.9894204,archaeological_site,,Archaeological site recorded in OpenStreetMap.,OpenStreetMap
Estructura 1,Estructura 1,estructura-1,-89.6732434,13.9883571,archaeological_site,,Archaeological site recorded in OpenStreetMap.,OpenStreetMap
Estructura 2,Estructura 2,estructura-2,-89.6725438,13.9882045,archaeological_site,,Archaeological site recorded in OpenStreetMap.,OpenStreetMap
Estructura 6,Estructura 6,estructura-6,-89.6718439,13.9898835,archaeological_site,,Archaeological site recorded in OpenStreetMap.,OpenStreetMap
Estructura 3,Estructura 3,estructura-3,-89.6724476,13.9886181,archaeological_site,,Archaeological site recorded in OpenStreetMap.,OpenStreetMap
Estructura 4,Estructura 4,estructura-4,-89.6718886,13.9883971,archaeological_site,,Archaeological site recorded in OpenStreetMap.,OpenStreetMap
Structure 5D-82,Structure 5D-82,structure-5d-82,-89.6260157,17.2206455,archaeological_site,,Archaeological site recorded in OpenStreetMap.,OpenStreetMap
Acrópolis Sur,Acrópolis Sur,acrópolis-sur,-89.6246613,17.2199303,archaeological_site,,Archaeological site recorded in OpenStreetMap.,OpenStreetMap
Antigua estación de Valladolid,Antigua estación de Valladolid,antigua-estación-de-valladolid,-88.2023474,20.6799671,archaeological_site,,Archaeological site recorded in OpenStreetMap.,OpenStreetMap
Pava,Pava,pava,-89.9060249,17.751155,archaeological_site,,Archaeological site recorded in OpenStreetMap.,OpenStreetMap
Portada de Ostúa,Portada de Ostúa,portada-de-ostúa,-89.5624712,14.3166121,archaeological_site,,Archaeological site recorded in OpenStreetMap.,OpenStreetMap
Restos del Puente Cuzcatlan,Restos del Puente Cuzcatlan,restos-del-puente-cuzcatlan,-88.5646074,13.6170629,archaeological_site,,Archaeological site recorded in OpenStreetMap.,OpenStreetMap
Restos del Puente Cuzcatlan,Restos del Puente Cuzcatlan,restos-del-puente-cuzcatlan,-88.5626715,13.6158465,archaeological_site,,Archaeological site recorded in OpenStreetMap.,OpenStreetMap
Structure 5C-42,Structure 5C-42,structure-5c-42,-89.6275237,17.2213091,archaeological_site,,Archaeological site recorded in OpenStreetMap.,OpenStreetMap
Structure 5C-44,Structure 5C-44,structure-5c-44,-89.6268211,17.2212423,archaeological_site,,Archaeological site recorded in OpenStreetMap.,OpenStreetMap
Structure 5C-47,Structure 5C-47,structure-5c-47,-89.6275875,17.2209308,archaeological_site,,Archaeological site recorded in OpenStreetMap.,OpenStreetMap
Structure 5D-76,Structure 5D-76,structure-5d-76,-89.6267498,17.2210333,archaeological_site,,Archaeological site recorded in OpenStreetMap.,OpenStreetMap
Structure 5D-89,Structure 5D-89,structure-5d-89,-89.6260898,17.2192347,archaeological_site,,Archaeological site recorded in OpenStreetMap.,OpenStreetMap
Manitas,Manitas,manitas,-86.8451157,20.4995851,archaeological_site,,Archaeological site recorded in OpenStreetMap.,OpenStreetMap
Chichan Nah,Chichan Nah,chichan-nah,-86.8447993,20.4995834,archaeological_site,,Archaeological site recorded in OpenStreetMap.,OpenStreetMap
El Alamo,El Alamo,el-alamo,-86.8465425,20.5002518,archaeological_site,,Archaeological site recorded in OpenStreetMap.,OpenStreetMap
Los Murales,Los Murales,los-murales,-86.8465805,20.5001711,archaeological_site,,Archaeological site recorded in OpenStreetMap.,OpenStreetMap
El Palacio,El Palacio,el-palacio,-86.8466314,20.5000229,archaeological_site,,Archaeological site recorded in OpenStreetMap.,OpenStreetMap
El Altar,El Altar,el-altar,-86.8463781,20.5000911,archaeological_site,,Archaeological site recorded in OpenStreetMap.,OpenStreetMap
El Arco,El Arco,el-arco,-86.8454084,20.5005578,archaeological_site,,Archaeological site recorded in OpenStreetMap.,OpenStreetMap
Sitio Arqueológico Rio Azul,Sitio Arqueológico Rio Azul,sitio-arqueológico-rio-azul,-89.2819095,17.777675,archaeological_site,,Archaeological site recorded in OpenStreetMap.,OpenStreetMap
Reserva Ecológica Salvador Alvarado Sur,Reserva Ecológica Salvador Alvarado Sur,reserva-ecológica-salvador-alvarado-sur,-89.5990264,20.9345525,archaeological_site,,Archaeological site recorded in OpenStreetMap.,OpenStreetMap
Xunantunich Archaeological Reserve,Xunantunich Archaeological Reserve,xunantunich-archaeological-reserve,-89.1413146,17.0895319,archaeological_site,,Archaeological site recorded in OpenStreetMap.,OpenStreetMap
La pirámide,La pirámide,la-pirámide,-87.6113301,20.0788241,archaeological_site,,Archaeological site recorded in OpenStreetMap.,OpenStreetMap
Zona Arqueológica San Miguelito,Zona Arqueológica San Miguelito,zona-arqueológica-san-miguelito,-86.7786388,21.0719369,archaeological_site,,Archaeological site recorded in OpenStreetMap.,OpenStreetMap
Zona Arqueológica Santa Elena,Zona Arqueológica Santa Elena,zona-arqueológica-santa-elena,-91.1523329,17.4960435,archaeological_site,,Archaeological site recorded in OpenStreetMap.,OpenStreetMap
Zona Arqueológica de Pomoná (Pakbul),Zona Arqueológica de Pomoná (Pakbul),zona-arqueológica-de-pomoná-pakbul,-91.5706309,17.4848687,archaeological_site,,Archaeological site recorded in OpenStreetMap.,OpenStreetMap
Zona Arqueológica del Arenal,Zona Arqueológica del Arenal,zona-arqueológica-del-arenal,-91.5668124,17.6426928,archaeological_site,,Archaeological site recorded in OpenStreetMap.,OpenStreetMap
Zona Arqueológica Dzoyilá,Zona Arqueológica Dzoyilá,zona-arqueológica-dzoyilá,-89.594928,20.9378977,archaeological_site,,Archaeological site recorded in OpenStreetMap.,OpenStreetMap
Benque Archaeological Park,Benque Archaeological Park,benque-archaeological-park,-89.1423803,17.0708913,archaeological_site,,Archaeological site recorded in OpenStreetMap.,OpenStreetMap
Parque Eco-Arqueológico Los Naranjos,Parque Eco-Arqueológico Los Naranjos,parque-eco-arqueológico-los-naranjos,-88.0259867,14.9356909,archaeological_site,,Archaeological site recorded in OpenStreetMap.,OpenStreetMap
Sitio Arqueológico,Sitio Arqueológico,sitio-arqueológico,-89.9230977,16.9130408,archaeological_site,,Archaeological site recorded in OpenStreetMap.,OpenStreetMap
Serpon Sugar Mill Archaeological Reserve,Serpon Sugar Mill Archaeological Reserve,serpon-sugar-mill-archaeological-reserve,-88.3470713,16.8219973,archaeological_site,,Archaeological site recorded in OpenStreetMap.,OpenStreetMap
Marco Gonzalez Archaeological Reserve,Marco Gonzalez Archaeological Reserve,marco-gonzalez-archaeological-reserve,-88.0145566,17.8821244,archaeological_site,,Archaeological site recorded in OpenStreetMap.,OpenStreetMap
Sitio Arqueológico El Chal,Sitio Arqueológico El Chal,sitio-arqueológico-el-chal,-89.6535041,16.634555,archaeological_site,,Archaeological site recorded in OpenStreetMap.,OpenStreetMap
Pyramid of La Danta,Pyramid of La Danta,pyramid-of-la-danta,-89.9029014,17.7515118,archaeological_site,,Archaeological site recorded in OpenStreetMap.,OpenStreetMap
Zona Arqueológica del Tiradero,Zona Arqueológica del Tiradero,zona-arqueológica-del-tiradero,-91.1556995,17.7858819,archaeological_site,,Archaeological site recorded in OpenStreetMap.,OpenStreetMap
Zona Arqueológica Aguada Fénix,Zona Arqueológica Aguada Fénix,zona-arqueológica-aguada-fénix,-91.1477306,17.8037947,archaeological_site,,Archaeological site recorded in OpenStreetMap.,OpenStreetMap
El Ceilo,El Ceilo,el-ceilo,-86.8461325,20.5000644,archaeological_site,,Archaeological site recorded in OpenStreetMap.,OpenStreetMap
El Monta,El Monta,el-monta,-86.8462005,20.4999362,archaeological_site,,Archaeological site recorded in OpenStreetMap.,OpenStreetMap
El Cerrito,El Cerrito,el-cerrito,-86.8462583,20.4998527,archaeological_site,,Archaeological site recorded in OpenStreetMap.,OpenStreetMap
El Culebra,El Culebra,el-culebra,-86.8452256,20.4995022,archaeological_site,,Archaeological site recorded in OpenStreetMap.,OpenStreetMap
El Lina,El Lina,el-lina,-86.8452837,20.5000456,archaeological_site,,Archaeological site recorded in OpenStreetMap.,OpenStreetMap
Murciélagos y Pet Nah,Murciélagos y Pet Nah,murciélagos-y-pet-nah,-86.8461259,20.5039138,archaeological_site,,Archaeological site recorded in OpenStreetMap.,OpenStreetMap
Murciélagos y Pet Nah,Murciélagos y Pet Nah,murciélagos-y-pet-nah,-86.8462675,20.5037344,archaeological_site,,Archaeological site recorded in OpenStreetMap.,OpenStreetMap
Estructura 3,Estructura 3,estructura-3,-91.5060079,15.3093237,archaeological_site,,Archaeological site recorded in OpenStreetMap.,OpenStreetMap
Iglesia de la Candelaria,Iglesia de la Candelaria,iglesia-de-la-candelaria,-88.5948184,20.0622506,archaeological_site,,Archaeological site recorded in OpenStreetMap.,OpenStreetMap
Zona Arqueológica El Tabasqueño,Zona Arqueológica El Tabasqueño,zona-arqueológica-el-tabasqueño,-89.7831896,19.5000338,archaeological_site,,Archaeological site recorded in OpenStreetMap.,OpenStreetMap
La Blanca,La Blanca,la-blanca,-89.4360342,16.9106558,archaeological_site,,Archaeological site recorded in OpenStreetMap.,OpenStreetMap
Holtun,Holtun,holtun,-89.4236589,16.9722962,archaeological_site,,Archaeological site recorded in OpenStreetMap.,OpenStreetMap
Ixlú,Ixlú,ixlú,-89.6866045,16.9798536,archaeological_site,,Archaeological site recorded in OpenStreetMap.,OpenStreetMap
El Cuyo,El Cuyo,el-cuyo,-92.1342049,18.0892618,archaeological_site,,Archaeological site recorded in OpenStreetMap.,OpenStreetMap
Castillo Real,Castillo Real,castillo-real,-86.7497072,20.5348484,archaeological_site,,Archaeological site recorded in OpenStreetMap.,OpenStreetMap
Chac-hal-al,Chac-hal-al,chac-hal-al,-87.234954,20.4942084,archaeological_site,,Archaeological site recorded in OpenStreetMap.,OpenStreetMap
Cueva del Salitre,Cueva del Salitre,cueva-del-salitre,-87.410569,14.8020427,archaeological_site,,Archaeological site recorded in OpenStreetMap.,OpenStreetMap
Iglesias Viejas,Iglesias Viejas,iglesias-viejas,-90.6301016,14.4537225,archaeological_site,,Archaeological site recorded in OpenStreetMap.,OpenStreetMap
Santa Rita Archaeological Site,Santa Rita Archaeological Site,santa-rita-archaeological-site,-88.3950493,18.4022985,archaeological_site,,Archaeological site recorded in OpenStreetMap.,OpenStreetMap
Fort Barlee,Fort Barlee,fort-barlee,-88.3872535,18.3922945,archaeological_site,,Archaeological site recorded in OpenStreetMap.,OpenStreetMap
Casa de Chultún,Casa de Chultún,casa-de-chultún,-87.4298034,20.2148436,archaeological_site,,Archaeological site recorded in OpenStreetMap.,OpenStreetMap
Conjunto de Palacios,Conjunto de Palacios,conjunto-de-palacios,-87.4294574,20.2133557,archaeological_site,,Archaeological site recorded in OpenStreetMap.,OpenStreetMap
Templo de la serie inicial,Templo de la serie inicial,templo-de-la-serie-inicial,-87.4290069,20.2144349,archaeological_site,,Archaeological site recorded in OpenStreetMap.,OpenStreetMap
Templo de la serie inicial,Templo de la serie inicial,templo-de-la-serie-inicial,-87.4290869,20.2143715,archaeological_site,,Archaeological site recorded in OpenStreetMap.,OpenStreetMap
Templo,Templo,templo,-87.4296439,20.213914,archaeological_site,,Archaeological site recorded in OpenStreetMap.,OpenStreetMap
Plataforma,Plataforma,plataforma,-87.4290861,20.2158561,archaeological_site,,Archaeological site recorded in OpenStreetMap.,OpenStreetMap
Plataforma,Plataforma,plataforma,-87.4291295,20.2157518,archaeological_site,,Archaeological site recorded in OpenStreetMap.,OpenStreetMap
Plataforma,Plataforma,plataforma,-87.4290472,20.2162906,archaeological_site,,Archaeological site recorded in OpenStreetMap.,OpenStreetMap
Plataforma,Plataforma,plataforma,-87.4291617,20.2161316,archaeological_site,,Archaeological site recorded in OpenStreetMap.,OpenStreetMap
Plataforma,Plataforma,plataforma,-87.4301625,20.213924,archaeological_site,,Archaeological site recorded in OpenStreetMap.,OpenStreetMap
Jaguar Temple,Jaguar Temple,jaguar-temple,-88.6530117,17.7646794,archaeological_site,,Archaeological site recorded in OpenStreetMap.,OpenStreetMap
Royal Complex N10-17 29,Royal Complex N10-17 29,royal-complex-n10-17-29,-88.6526477,17.7655872,archaeological_site,,Archaeological site recorded in OpenStreetMap.,OpenStreetMap
Ball Court,Ball Court,ball-court,-88.6529644,17.7670162,archaeological_site,,Archaeological site recorded in OpenStreetMap.,OpenStreetMap
High Temple,High Temple,high-temple,-88.6527257,17.7678529,archaeological_site,,Archaeological site recorded in OpenStreetMap.,OpenStreetMap
Mask Temple,Mask Temple,mask-temple,-88.6496895,17.7694575,archaeological_site,,Archaeological site recorded in OpenStreetMap.,OpenStreetMap
Juego de Pelota,Juego de Pelota,juego-de-pelota,-87.7320361,20.4903535,archaeological_site,,Archaeological site recorded in OpenStreetMap.,OpenStreetMap
Estructura 4,Estructura 4,estructura-4,-87.7318293,20.489779,archaeological_site,,Archaeological site recorded in OpenStreetMap.,OpenStreetMap
Juego de pelota,Juego de pelota,juego-de-pelota,-87.724075,20.4928671,archaeological_site,,Archaeological site recorded in OpenStreetMap.,OpenStreetMap
Estructura,Estructura,estructura,-87.7259916,20.4919597,archaeological_site,,Archaeological site recorded in OpenStreetMap.,OpenStreetMap
Estructura 5,Estructura 5,estructura-5,-87.7266085,20.4903397,archaeological_site,,Archaeological site recorded in OpenStreetMap.,OpenStreetMap
Estructura 4,Estructura 4,estructura-4,-87.7262643,20.4901813,archaeological_site,,Archaeological site recorded in OpenStreetMap.,OpenStreetMap
Estructura 3,Estructura 3,estructura-3,-87.7254673,20.4903962,archaeological_site,,Archaeological site recorded in OpenStreetMap.,OpenStreetMap
El Mulato,El Mulato,el-mulato,-90.5552792,14.5833975,archaeological_site,,Archaeological site recorded in OpenStreetMap.,OpenStreetMap
Blue Creek Archealogical Dig Site,Blue Creek Archealogical Dig Site,blue-creek-archealogical-dig-site,-88.923119,17.8881474,archaeological_site,,Archaeological site recorded in OpenStreetMap.,OpenStreetMap
MINAS DE ORO SAN CARLOS MORAZAN,MINAS DE ORO SAN CARLOS MORAZAN,minas-de-oro-san-carlos-morazan,-88.1004947,13.6124633,archaeological_site,,Archaeological site recorded in OpenStreetMap.,OpenStreetMap
CUEVAS DE MINAS DE ORO,CUEVAS DE MINAS DE ORO,cuevas-de-minas-de-oro,-88.0956379,13.6059364,archaeological_site,,Archaeological site recorded in OpenStreetMap.,OpenStreetMap
Zona de interes arqueologico,Zona de interes arqueologico,zona-de-interes-arqueologico,-87.4843027,14.9464337,archaeological_site,,Archaeological site recorded in OpenStreetMap.,OpenStreetMap
Naachtún,Naachtún,naachtún,-89.7287285,17.7946703,archaeological_site,,Archaeological site recorded in OpenStreetMap.,OpenStreetMap
Grupo C,Grupo C,grupo-c,-89.7338235,17.7949434,archaeological_site,,Archaeological site recorded in OpenStreetMap.,OpenStreetMap
Grupo A,Grupo A,grupo-a,-89.7287917,17.7949127,archaeological_site,,Archaeological site recorded in OpenStreetMap.,OpenStreetMap
Grupo B,Grupo B,grupo-b,-89.7261845,17.7940342,archaeological_site,,Archaeological site recorded in OpenStreetMap.,OpenStreetMap
Teleferico San Jacinto,Teleferico San Jacinto,teleferico-san-jacinto,-89.161523,13.6787456,archaeological_site,,Archaeological site recorded in OpenStreetMap.,OpenStreetMap
Acueducto de Pinula,Acueducto de Pinula,acueducto-de-pinula,-90.516667,14.5925432,archaeological_site,,Archaeological site recorded in OpenStreetMap.,OpenStreetMap
Acueducto de Pinula,Acueducto de Pinula,acueducto-de-pinula,-90.5116744,14.5899661,archaeological_site,,Archaeological site recorded in OpenStreetMap.,OpenStreetMap
Acueducto de Pinula,Acueducto de Pinula,acueducto-de-pinula,-90.5228913,14.5981337,archaeological_site,,Archaeological site recorded in OpenStreetMap.,OpenStreetMap
Torre de Vigía,Torre de Vigía,torre-de-vigía,-87.4266162,20.2196796,archaeological_site,,Archaeological site recorded in OpenStreetMap.,OpenStreetMap
Torre de Vigía,Torre de Vigía,torre-de-vigía,-87.4271849,20.2182616,archaeological_site,,Archaeological site recorded in OpenStreetMap.,OpenStreetMap
Antigua estación de Texán de Palomeque,Antigua estación de Texán de Palomeque,antigua-estación-de-texán-de-palomeque,-89.830497,20.9291657,archaeological_site,,Archaeological site recorded in OpenStreetMap.,OpenStreetMap
Antigua estación de Chicxulub Pueblo,Antigua estación de Chicxulub Pueblo,antigua-estación-de-chicxulub-pueblo,-89.524219,21.1363777,archaeological_site,,Archaeological site recorded in OpenStreetMap.,OpenStreetMap
Antigua estación de Xcanchacán,Antigua estación de Xcanchacán,antigua-estación-de-xcanchacán,-89.5135462,20.6311543,archaeological_site,,Archaeological site recorded in OpenStreetMap.,OpenStreetMap
Antigua estación de Hunabchén,Antigua estación de Hunabchén,antigua-estación-de-hunabchén,-89.5150599,20.5318869,archaeological_site,,Archaeological site recorded in OpenStreetMap.,OpenStreetMap
Acueducto de Pinula,Acueducto de Pinula,acueducto-de-pinula,-90.5066687,14.5874866,archaeological_site,,Archaeological site recorded in OpenStreetMap.,OpenStreetMap
Antigua Plataforma Giratoria,Antigua Plataforma Giratoria,antigua-plataforma-giratoria,-89.6127364,20.9780054,archaeological_site,,Archaeological site recorded in OpenStreetMap.,OpenStreetMap
Acrópolis Sur,Acrópolis Sur,acrópolis-sur,-90.9666467,16.8967359,archaeological_site,,Archaeological site recorded in OpenStreetMap.,OpenStreetMap
Edificio 16,Edificio 16,edificio-16,-90.965314,16.9006772,archaeological_site,,Archaeological site recorded in OpenStreetMap.,OpenStreetMap
Juego de Pelota de la Casa Colorada,Juego de Pelota de la Casa Colorada,juego-de-pelota-de-la-casa-colorada,-88.5712674,20.6801004,archaeological_site,,Archaeological site recorded in OpenStreetMap.,OpenStreetMap
Estructura 4,Estructura 4,estructura-4,-88.6650176,18.6865879,archaeological_site,,Archaeological site recorded in OpenStreetMap.,OpenStreetMap
Estructura 5,Estructura 5,estructura-5,-88.6651267,18.6849831,archaeological_site,,Archaeological site recorded in OpenStreetMap.,OpenStreetMap
Parque Arqueológico K'íiwik,Parque Arqueológico K'íiwik,parque-arqueológico-kíiwik,-89.5912007,21.0226594,archaeological_site,,Archaeological site recorded in OpenStreetMap.,OpenStreetMap
Chen Hó,Chen Hó,chen-hó,-89.5842488,20.9687591,archaeological_site,,Archaeological site recorded in OpenStreetMap.,OpenStreetMap
Grupo Macanxoc,Grupo Macanxoc,grupo-macanxoc,-87.7217095,20.4831903,archaeological_site,,Archaeological site recorded in OpenStreetMap.,OpenStreetMap
Grupo Macanxoc,Grupo Macanxoc,grupo-macanxoc,-87.7226592,20.484017,archaeological_site,,Archaeological site recorded in OpenStreetMap.,OpenStreetMap
Iglesia Abandonada San José de Capadocia,Iglesia Abandonada San José de Capadocia,iglesia-abandonada-san-josé-de-capadocia,-89.5950591,21.1496397,archaeological_site,,Archaeological site recorded in OpenStreetMap.,OpenStreetMap
Hacienda de Misnebalam,Hacienda de Misnebalam,hacienda-de-misnebalam,-89.5948404,21.1507172,archaeological_site,,Archaeological site recorded in OpenStreetMap.,OpenStreetMap
Reserva Arqueológica El Pilar,Reserva Arqueológica El Pilar,reserva-arqueológica-el-pilar,-89.1664725,17.2503818,archaeological_site,,Archaeological site recorded in OpenStreetMap.,OpenStreetMap
Sitio Arqueológico Joya de Cerén,Sitio Arqueológico Joya de Cerén,sitio-arqueológico-joya-de-cerén,-89.356521,13.8276624,archaeological_site,,Archaeological site recorded in OpenStreetMap.,OpenStreetMap
Tazumal,Tazumal,tazumal,-89.6741267,13.9790233,archaeological_site,,Archaeological site recorded in OpenStreetMap.,OpenStreetMap
Antiguo Casino Militar de Santa Ana,Antiguo Casino Militar de Santa Ana,antiguo-casino-militar-de-santa-ana,-89.5572743,13.9871325,archaeological_site,,Archaeological site recorded in OpenStreetMap.,OpenStreetMap
Portada de Ostúa,Portada de Ostúa,portada-de-ostúa,-89.5625874,14.3163179,archaeological_site,,Archaeological site recorded in OpenStreetMap.,OpenStreetMap
Sitio Arqueologico de Cara Sucia,Sitio Arqueologico de Cara Sucia,sitio-arqueologico-de-cara-sucia,-90.0477301,13.7770938,archaeological_site,,Archaeological site recorded in OpenStreetMap.,OpenStreetMap
Tikal,Tikal,tikal,-89.6222624,17.2208197,archaeological_site,,Archaeological site recorded in OpenStreetMap.,OpenStreetMap
La Recoleccion,La Recoleccion,la-recoleccion,-90.7417458,14.5603014,archaeological_site,,Archaeological site recorded in OpenStreetMap.,OpenStreetMap
Ruinas de Copán,Ruinas de Copán,ruinas-de-copán,-89.143437,14.8376246,archaeological_site,,Archaeological site recorded in OpenStreetMap.,OpenStreetMap
Zona Arqueológica de Tulum,Zona Arqueológica de Tulum,zona-arqueológica-de-tulum,-87.4293745,20.2146774,archaeological_site,,Archaeological site recorded in OpenStreetMap.,OpenStreetMap
Lubaantun,Lubaantun,lubaantun,-88.9589264,16.2822072,archaeological_site,,Archaeological site recorded in OpenStreetMap.,OpenStreetMap
Ruinas de la Catedral de San José,Ruinas de la Catedral de San José,ruinas-de-la-catedral-de-san-josé,-90.7325682,14.5567373,archaeological_site,,Archaeological site recorded in OpenStreetMap.,OpenStreetMap
Convento de Santa Clara,Convento de Santa Clara,convento-de-santa-clara,-90.7307378,14.5550536,archaeological_site,,Archaeological site recorded in OpenStreetMap.,OpenStreetMap
